district,mandal,village,lat,long,date,value
ADILABAD,Adilabad,Adilabad,19.668299,78.5247,01-01-2021,8.9
ADILABAD,Bazarhatnur,Bazarhatnur,19.458888,78.350833,01-01-2021,6.01
ADILABAD,Bela,Chandpally,19.684431,78.848456,01-01-2021,8.1
ADILABAD,Bheempur,Arli,19.83196,78.37931,01-01-2021,8.05
ADILABAD,Bheempur,Bheempur,19.772188,78.417841,01-01-2021,6.91
ADILABAD,Boath,Boath,19.342416,78.316527,01-01-2021,7.45
ADILABAD,Gudihatnoor,Gudihatnoor,19.525555,78.512222,01-01-2021,12.1
ADILABAD,Jainath,Bhoraj,19.739722,78.546472,01-01-2021,14.05
ADILABAD,Jainath,Jainath,19.730555,78.64,01-01-2021,3.5
ADILABAD,Narnoor,Narnoor,19.495665,78.852654,01-01-2021,2.5
ADILABAD,Neradigonda,Neradigonda,19.29375,78.41216,01-01-2021,9
ADILABAD,Talamadugu,Devapur,19.612944,78.463111,01-01-2021,6.3
ADILABAD,Talamadugu,Talamadugu,19.6334,78.396899,01-01-2021,4.79
ADILABAD,Tamsi,Tamsi,19.6811,78.426799,01-01-2021,4.4
ADILABAD,Utnoor,Utnoor,19.367777,78.782777,01-01-2021,4.7
BHADRADRI,Allapalli,Allapalli,17.82975,80.475008,01-01-2021,6.41
BHADRADRI,Allapalli,Markodu,17.91444,80.507666,01-01-2021,5.82
BHADRADRI,Annapureddypalli,Annapureddypalli,17.355422,80.82226,01-01-2021,13.98
BHADRADRI,Ashwapuram,Ammagaripalli,17.865166,80.85051,01-01-2021,1.2
BHADRADRI,Ashwapuram,Aswapuram,17.847626,80.803745,01-01-2021,5.67
BHADRADRI,Ashwapuram,Aswapuram,17.835944,80.825667,01-01-2021,4.24
BHADRADRI,Ashwapuram,ASWARAOPET (D),17.243444,81.109888,01-01-2021,31.19
BHADRADRI,Aswaraopet (S),Aswaraopet (S),17.244199,81.110599,01-01-2021,31.06
BHADRADRI,Aswaraopeta,Duradapadu,17.43166,81.090311,01-01-2021,6.58
BHADRADRI,Aswaraopeta,Gummadivalli,17.416861,81.178305,01-01-2021,2.6
BHADRADRI,Aswaraopeta,NANDIPADU,17.455835,81.128705,01-01-2021,2.32
BHADRADRI,Aswaraopeta,Vinayakapuram,17.34561,81.12147,01-01-2021,6.31
BHADRADRI,Bhadrachalam,Bhadrachalam,17.666775,80.900922,01-01-2021,2.82
BHADRADRI,Burgampad,Krishnasagar,17.709524,80.811524,01-01-2021,8.15
BHADRADRI,Burgampad,M.Banjara,17.6447,80.7911,01-01-2021,5.83
BHADRADRI,Chandrugonda,Cherla,18.07449,80.83124,01-01-2021,3.26
BHADRADRI,Chandrugonda,Maddukuru,17.356111,80.675527,01-01-2021,16.77
BHADRADRI,Chandrugonda,Ravikampadu,17.3986,80.6106,01-01-2021,5.34
BHADRADRI,Cherla,Chinmedisileru,18.061388,80.853833,01-01-2021,6.17
BHADRADRI,Chunchupalli,Chunchupalli,17.536377,80.612734,01-01-2021,4.1
BHADRADRI,Dammapeta,Malkaram,17.310587,81.038879,01-01-2021,10.28
BHADRADRI,Dammapeta,Mandalapalli,17.235972,81.008986,01-01-2021,39.71
BHADRADRI,Dammapeta,Patwarigudem,17.346638,80.9629722,01-01-2021,15.23
BHADRADRI,Dummugudem,Bandirevu,17.921194,80.9155,01-01-2021,2.34
BHADRADRI,Dummugudem,Dummugudem,17.8523,80.8937,01-01-2021,1.98
BHADRADRI,Gundala,Gundala,17.906,80.33055,01-01-2021,3.32
BHADRADRI,Gundala,Kanchanapalli,17.792225,80.42243,01-01-2021,1.57
BHADRADRI,Gundala,Mamakannu,17.865819,80.412727,01-01-2021,3.6
BHADRADRI,Gundala,Sainapalli,17.95777,80.34505,01-01-2021,4.1
BHADRADRI,Gundala,Settupalli,17.810477,80.303583,01-01-2021,5.88
BHADRADRI,Julurpadu,P. Narsapuram,17.44733,80.526444,01-01-2021,7.3
BHADRADRI,Julurpadu,Papakollu,17.4183,80.4828,01-01-2021,3.38
BHADRADRI,Kalvala nagaram*,karakagudem,18.014193,80.619051,01-01-2021,2.35
BHADRADRI,Karakagudem,Karakagudem,18.034655,80.568147,01-01-2021,2.43
BHADRADRI,Kothagudem,Kothagudem,17.544858,80.61844,01-01-2021,20.72
BHADRADRI,Laxmidevipalli,Bangaruchelka,17.756305,80.602444,01-01-2021,3.33
BHADRADRI,Laxmidevipalli,Laxmidevipalli,17.563756,80.624863,01-01-2021,4.83
BHADRADRI,Manuguru,Manuguru,17.955072,80.83008,01-01-2021,5.19
BHADRADRI,Manuguru,Pagideru,17.970111,80.73386,01-01-2021,1.59
BHADRADRI,Mulakalapalli,Mulakalapalli (D),17.5036,80.831899,01-01-2021,9.53
BHADRADRI,Mulakalapalli,MULAKALAPALLI (S),17.419666,80.481383,01-01-2021,9.44
BHADRADRI,Mulakalapalli,N. Jaganadhapuram,17.4343055,80.86475,01-01-2021,8.82
BHADRADRI,Mulakalapalli,Pusugudem            (Pakeer thanda),17.541869,80.763222,01-01-2021,1.98
BHADRADRI,Mulakalapalli,Thimmampet,17.541769,80.9327222,01-01-2021,3.79
BHADRADRI,Palwancha,Danthalaboru,17.586194,80.839666,01-01-2021,4.35
BHADRADRI,Palwancha,Pathapalwancha,17.540083,80.503527,01-01-2021,4.68
BHADRADRI,Palwancha,REGELLA,17.949174,80.576312,01-01-2021,3.2
BHADRADRI,Palwancha,Ulavanoor,17.780799,80.679199,01-01-2021,4.78
BHADRADRI,Palwancha,Yanmbailu,17.678111,80.663944,01-01-2021,5.16
BHADRADRI,Pinapaka,Dugenepalli,18.12886,80.64669,01-01-2021,2.21
BHADRADRI,Pinapaka,Potlapalli ,18.038255,80.684305,01-01-2021,4.12
BHADRADRI,Sujathanagar,Sarvaram (Gudithanda),17.5277166,80.58608,01-01-2021,5.08
BHADRADRI,Sujathanagar,Sujathanagar,17.48378,80.57759,01-01-2021,7.56
BHADRADRI,Tekulapalli,Bethampudi,17.564333,80.449277,01-01-2021,5.16
BHADRADRI,Tekulapalli,Bodu,17.674399,80.443599,01-01-2021,4.7
BHADRADRI,Tekulapalli,Mutyalampadu,17.540083,80.503522,01-01-2021,4.73
BHADRADRI,Tekulapalli,Sulanagar,17.543558,80.501917,01-01-2021,3.86
BHADRADRI,Yellandu,Komararam,17.707922,80.317501,01-01-2021,4.63
BHADRADRI,Yellandu,Narayanapuram D,17.5125,80.374999,01-01-2021,5.44
BHADRADRI,Yellandu,NARAYANAPURAM S,17.51269,80.37816,01-01-2021,5.26
BHADRADRI,Yellandu,Rompedu,17.647382,80.299749,01-01-2021,4.79
BHADRADRI,Yellandu,Sudimalla,17.589836,80.354077,01-01-2021,3.58
BHUPALPALLY,Bhupalpally,Bhupalpally,18.441128,79.876922,01-01-2021,5.25
BHUPALPALLY,Bhupalpally,Gudadpally,18.389256,79.8072,01-01-2021,2.31
BHUPALPALLY,Bhupalpally,Nandigama,18.46163889,80.08775,01-01-2021,3.84
BHUPALPALLY,Chityala,Chityala,18.337481,79.671932,01-01-2021,3.49
BHUPALPALLY,Chityala,Jadalpet,18.383433,79.736111,01-01-2021,6.09
BHUPALPALLY,Ghanpur Mulug,Chelpur(D),18.37641667,79.83125,01-01-2021,7.92
BHUPALPALLY,Ghanpur Mulug,Chelpur(S),18.375514,79.835062,01-01-2021,5.36
BHUPALPALLY,Ghanpur Mulug,Velthurlapally,18.29822222,79.89383333,01-01-2021,5.88
BHUPALPALLY,Kataram,Jadaraopet,18.69579,79.883779,01-01-2021,10.36
BHUPALPALLY,Kataram,Medipally,18.550111,79.923666,01-01-2021,21.2
BHUPALPALLY,Kataram,Regulagudem,18.623722,79.868777,01-01-2021,33.95
BHUPALPALLY,Kataram,Shankarampally 125(D),18.603804,79.898529,01-01-2021,28.6
BHUPALPALLY,Kataram,Shankarampally 47,18.61308333,79.88513889,01-01-2021,27.65
BHUPALPALLY,Maha Mutharam,Stambampally,18.563899,79.9927,01-01-2021,1.98
BHUPALPALLY,Maha Mutharam,Yatnaram,18.573833,80.152333,01-01-2021,4.98
BHUPALPALLY,Mahadevpur,Ambatipalli,18.695678,80.061858,01-01-2021,23.12
BHUPALPALLY,Mahadevpur,Annaram,18.762444,79.843138,01-01-2021,18.5
BHUPALPALLY,Mahadevpur,Kaleswaram,18.803055,79.905444,01-01-2021,9.43
BHUPALPALLY,Mahadevpur,Mahadevpur -125D,18.72627778,79.97925,01-01-2021,10.13
BHUPALPALLY,Mahadevpur,Mahadevpur 199D,18.72627778,79.97925,01-01-2021,9.88
BHUPALPALLY,Mahadevpur,Mahadevpur 75NC,18.799999,79.916666,01-01-2021,10.54
BHUPALPALLY,Malhar Rao,Mallaram,18.556805,79.785777,01-01-2021,6.72
BHUPALPALLY,Mogullapalli,Aknepally,18.3631,79.6103,01-01-2021,7.63
BHUPALPALLY,Mogullapalli,Rangapur,18.27063889,79.68827778,01-01-2021,5.94
BHUPALPALLY,Palimela,Kamanpally,18.625166,80.245666,01-01-2021,2.63
BHUPALPALLY,Palimela,Lenkalagadda,18.674833,80.129555,01-01-2021,13
BHUPALPALLY,Palimela,Sarvaipet,18.683222,80.238166,01-01-2021,15.22
BHUPALPALLY,Regonda,Gorikothapally,18.179599,79.814499,01-01-2021,8.71
BHUPALPALLY,Regonda,Regonda,18.239999,79.7775,01-01-2021,5.49
BHUPALPALLY,Tekumatla,Ramakrishnapuram,18.419,79.630499,01-01-2021,5.24
HYDERABAD,Ameerpet,"DIRECTOR WOMEN AND CHILD WELFARE, YOUSUFGUDA",17.262,78.262,01-01-2021,
HYDERABAD,Ameerpet,S.R.Nagar,17.264,78.262,01-01-2021,13.68
HYDERABAD,Ameerpet,"STDC Chest Hospital, Erragadda",17.264,78.264,01-01-2021,9.54
HYDERABAD,Asifnagar,"Govt. Polytechnic, Masab Tank.",17.241,78.271,01-01-2021,4.5
HYDERABAD,Asifnagar,Himayanagar,17.235,78.265,01-01-2021,2.29
HYDERABAD,Asifnagar,Kulsanapur,17.223,78.203,01-01-2021,3.1
HYDERABAD,Bandlaguda,Chandraingutta,17.195,78.29,01-01-2021,9.58
HYDERABAD,Bhadurpura,Bahadurpura,17.21,78.273,01-01-2021,1.47
HYDERABAD,Charminar,Darul Shifa,17.222,78.295,01-01-2021,4.81
HYDERABAD,Himayathnagar,"Fever Hospital, Nallakunta",17.235,78.3,01-01-2021,5.71
HYDERABAD,Himayathnagar,Indira Park,17.256,78.283,01-01-2021,2.13
HYDERABAD,Khairathabad,"CME premises, Chinthalbasti",17.243,78.274,01-01-2021,5.1
HYDERABAD,Khairathabad,"CME premises, Chinthalbasti",17.325,78.272,01-01-2021,5.19
HYDERABAD,Khairathabad,Khairathabad,,,01-01-2021,
HYDERABAD,Khairathabad,T.S..Secretariat,17.243,78.281,01-01-2021,
HYDERABAD,Maredpally,"Govt.Jr.College,West Maredpally",17.264,78.292,01-01-2021,4.28
HYDERABAD,Maredpally,Maredpally(s),17.264,78.303,01-01-2021,9.35
HYDERABAD,Musheerabad,Musheerabad,17.253,78.302,01-01-2021,5.05
HYDERABAD,Nampally,Nampally,17.252,78.286,01-01-2021,2.21
HYDERABAD,Saidabad,Juvinile home,17.102,78.172,01-01-2021,2.77
HYDERABAD,Secunderabad ,"Sanjeevaiah Park, Hussian Sagar.",17.295,78.272,01-01-2021,3.05
HYDERABAD,Shaikpet,Shaikpet,17.253,78.265,01-01-2021,
HYDERABAD,Shaikpet,"Vengal Rao Park, Srinagar colony",,,01-01-2021,3
HYDERABAD,Tirmalgiri,"NIMH,Hasmathpet",17.281,78.292,01-01-2021,5.37
JAGITYAL,Beerpur,Kandlapalle,19.027722,78.961055,01-01-2021,2.73
JAGITYAL,Dharmapuri,Dharmapuri,18.946944,79.101944,01-01-2021,5.93
JAGITYAL,Dharmapuri,Jaina,19.00419,79.0429,01-01-2021,4.62
JAGITYAL,Gollapalli,Gollapalli,18.7906,79.0522,01-01-2021,3.8
JAGITYAL,Ibrahimpatnam,Ibrahimpatnam,18.898611,78.579444,01-01-2021,2.75
JAGITYAL,Jagityal,Jagityal,18.46311,78.54365,01-01-2021,6.75
JAGITYAL,Jagityal,Morapally,18.49379,78.51353,01-01-2021,2.42
JAGITYAL,Kathalapur,Kathalapur,18.752777,78.689722,01-01-2021,2.48
JAGITYAL,Kodimal,Chepial,18.624722,78.935833,01-01-2021,6.15
JAGITYAL,Korutla,Ilapur,18.8561,78.7039,01-01-2021,6.58
JAGITYAL,Korutla,Korutla,18.818611,78.706388,01-01-2021,7.4
JAGITYAL,Mallapur,Mallapur,18.993948,78.770044,01-01-2021,6.9
JAGITYAL,Mallapur,VV Raopet,18.9647,78.706399,01-01-2021,5.42
JAGITYAL,Mallial,Nukapalli,18.709399,78.922199,01-01-2021,5.17
JAGITYAL,Medipally,Desaipet,18.4223,78.45427,01-01-2021,4.85
JAGITYAL,Medipally,Katlakunta,18.843888,78.813333,01-01-2021,3.82
JAGITYAL,Medipally,Rangapur,18.758416,78.792333,01-01-2021,2.76
JAGITYAL,Metpalli,Metpalli,18.847777,78.620555,01-01-2021,
JAGITYAL,Metpalli,Atmakur,18.752194,78.620111,01-01-2021,8.5
JAGITYAL,Metpalli,Bandalingapur,18.830899,78.5853,01-01-2021,3.55
JAGITYAL,Metpalli,Metla Chittapur,18.781131,78.588005,01-01-2021,2.38
JAGITYAL,Pegadapalli,Pegadapalli,18.706388,79.064444,01-01-2021,3.68
JAGITYAL,Raikal,Bornapally,19.026499,78.8235,01-01-2021,3.86
JAGITYAL,Raikal,Itikyal,18.9192,78.760618,01-01-2021,2
JAGITYAL,Raikal,Raikal,18.910338,78.802852,01-01-2021,3.7
JAGITYAL,Raikal,Vodde lingapur,18.959166,78.837222,01-01-2021,1.1
JAGITYAL,Sarangapur,Rachapalli,18.931444,78.931444,01-01-2021,4.98
JAGITYAL,Sarangapur,Sarangapur,18.929722,78.958055,01-01-2021,4.65
JAGITYAL,Velgatur,Chegyam,18.814499,79.273599,01-01-2021,1.67
JAGITYAL,Velgatur,Stambampally,18.861,79.161,01-01-2021,4.56
JAGITYAL,Velgatur,Velgatur,18.835299,79.169699,01-01-2021,4.2
JANGAON,Bachannapet,Bachannapet,17.7908,79.0422,01-01-2021,4
JANGAON,Bachannapet,Padamati Keshapur,17.838299,78.9394,01-01-2021,6.1
JANGAON,Chilpur,Kistajigudem,,,01-01-2021,3.81
JANGAON,Chilpur,Malkapur,,,01-01-2021,7.15
JANGAON,Devaruppula,Devaruppula,17.537399,79.356199,01-01-2021,3.03
JANGAON,Devaruppula,Singarajupalli,17.5919,79.273799,01-01-2021,4.11
JANGAON,Ghanpur stn,Chagal,17.838699,79.3604,01-01-2021,10.08
JANGAON,Ghanpur stn,Namiligonda,,,01-01-2021,1.29
JANGAON,Jangaon,Jangaon,17.697299,79.147399,01-01-2021,2.62
JANGAON,Jangaon,Siddanki,17.7676,79.0981,01-01-2021,7.32
JANGAON,Kodakandla,Kodakandla,17.5258,79.514399,01-01-2021,6.5
JANGAON,Lingala ghanpur,Jeedikal,17.6084,79.161299,01-01-2021,4.69
JANGAON,Lingala ghanpur,Lingala ghanpur,17.659099,79.1997,01-01-2021,5.5
JANGAON,Lingala ghanpur,Vadicherla,17.6606,79.236499,01-01-2021,1.23
JANGAON,Narmetta,Machupahad,17.87118,79.222159,01-01-2021,6.05
JANGAON,Narmetta,Veldanda,17.858198,79.124717,01-01-2021,4.62
JANGAON,Palakurthi,Gudur,17.736265,79.409394,01-01-2021,3.56
JANGAON,Palakurthi,Palakurthi,17.669099,79.422499,01-01-2021,5.92
JANGAON,Raghunadhapalli,Ibrahimpur,,,01-01-2021,6.02
JANGAON,Raghunadhapalli,Nidigonda,17.740555,79.233333,01-01-2021,3.58
JANGAON,Raghunadhapalli,Raghunadhapalli,17.747222,79.26,01-01-2021,6.58
JANGAON,Tarigopulla,Tarigopulla,,,01-01-2021,4.62
JANGAON,Zafergad,Kunur,17.847,79.4766,01-01-2021,9.59
JANGAON,Zafergad,Zafergad,17.7651,79.487,01-01-2021,5.6
JOGULAMBA(GADWAL),Alampur,Alampur,15.896441,78.121104,01-01-2021,2.52
JOGULAMBA(GADWAL),Dharoor,Dharoor,16.224385,77.678908,01-01-2021,4.35
JOGULAMBA(GADWAL),Dharoor,Neelahally,16.28659,77.61226,01-01-2021,1.63
JOGULAMBA(GADWAL),Gadwal,Gadwal,16.2326,77.802099,01-01-2021,1.24
JOGULAMBA(GADWAL),Gattu,Allor,,,01-01-2021,4.67
JOGULAMBA(GADWAL),Gattu,Gattu,16.1287,77.5757,01-01-2021,2.14
JOGULAMBA(GADWAL),Gattu,Induvasi,16.03913,77.5248,01-01-2021,
JOGULAMBA(GADWAL),Ieeza,Eklaspur,16.04836,77.63844,01-01-2021,
JOGULAMBA(GADWAL),Ieeza,Ieeza,16.0255,77.66929,01-01-2021,16.58
JOGULAMBA(GADWAL),Itikyal,Kodandapur,16.070099,77.831499,01-01-2021,24.47
JOGULAMBA(GADWAL),K-T Doddi,Kondapur,16.24993,77.56556,01-01-2021,4.41
JOGULAMBA(GADWAL),K-T Doddi,Kuchinerla,16.17976,77.52709,01-01-2021,1.76
JOGULAMBA(GADWAL),Maldakal,Maldakal,15.9656,77.9533,01-01-2021,1.12
JOGULAMBA(GADWAL),Manopad,Manopad,15.9656,77.9533,01-01-2021,3.22
JOGULAMBA(GADWAL),Undavally,Pullur,15.91743,78.00845,01-01-2021,16.78
JOGULAMBA(GADWAL),Undavally,Undavally,15.93461,78.03947,01-01-2021,1.9
JOGULAMBA(GADWAL),Waddepalli,Santhinagar,15.939999,77.839,01-01-2021,1.22
KAMAREDDY,Bansawada,Bansawada,18.392999,77.879,01-01-2021,5.35
KAMAREDDY,Bansawada,Budimi,18.34,77.89,01-01-2021,2.29
KAMAREDDY,Bhiknoor,Bhiknoor,18.195999,78.398999,01-01-2021,4
KAMAREDDY,Bhiknoor,Issannapally,18.142899,78.4767,01-01-2021,3.14
KAMAREDDY,Bhiknoor,P.D.Mallareddy,18.173,78.452999,01-01-2021,14.75
KAMAREDDY,Bibipet,Bibipet,18.206539,78.526499,01-01-2021,14.13
KAMAREDDY,BICHKUNDA,Pulkal,18.2356,77.4601,01-01-2021,5.95
KAMAREDDY,Birkur,Birkur,18.47,77.802999,01-01-2021,15.4
KAMAREDDY,Domakonda,Domakonda,18.249999,78.436,01-01-2021,17.67
KAMAREDDY,Gandhari,Gandhari,18.396,78.107,01-01-2021,15.72
KAMAREDDY,Gandhari,Ramlaxmanpally,18.319999,78.13,01-01-2021,11.67
KAMAREDDY,Gandhari,Sarvapoor,18.3647,77.9851,01-01-2021,11.88
KAMAREDDY,Jukkal,Jukkal,18.364,77.604,01-01-2021,4.37
KAMAREDDY,Jukkal,Savargao,18.321675,77.649524,01-01-2021,3.52
KAMAREDDY,Kamareddy,Adloor,18.343799,78.3435,01-01-2021,13.57
KAMAREDDY,Kamareddy,Narasannapally,18.2686,78.361699,01-01-2021,14.61
KAMAREDDY,Lingampet,Bhavanipet,18.279099,78.057999,01-01-2021,11.29
KAMAREDDY,Lingampet,Khannapur,18.19,78.159999,01-01-2021,16.28
KAMAREDDY,Lingampet,Mothe,18.31,78.17,01-01-2021,9.41
KAMAREDDY,Machareddy,Machareddy,18.329,78.493,01-01-2021,8
KAMAREDDY,Maddnur,Menoor,18.482999,77.652,01-01-2021,4.72
KAMAREDDY,Maddnur,SOMUR,,,01-01-2021,4
KAMAREDDY,Nagireddipet,Banjara Thanda,18.1449,78.081799,01-01-2021,14.74
KAMAREDDY,Nagireddipet,Malthummeda,18.113999,78.141999,01-01-2021,9.25
KAMAREDDY,Nasurullabad,Nasurullabad,18.467999,77.872999,01-01-2021,4.24
KAMAREDDY,Nizamsagar,Achampet,18.209999,77.93,01-01-2021,8.05
KAMAREDDY,Nizamsagar,Mohammadnagar,18.293098,77.908661,01-01-2021,3.87
KAMAREDDY,Pedda Kodapgal,Shanthapur,18.1952,77.4355,01-01-2021,6.32
KAMAREDDY,Pitlam,Maddela Cheruvu,18.35,77.849999,01-01-2021,10.26
KAMAREDDY,Rajampet,Argonda,18.233999,78.272,01-01-2021,11.7
KAMAREDDY,Rajampet,Kondapur,18.189999,78.279999,01-01-2021,9.05
KAMAREDDY,RAMAREDDY,Reddypet,18.2433,78.2501,01-01-2021,11.45
KAMAREDDY,Sadasivanagar,Sadasivanagar,18.406,78.264,01-01-2021,9.74
KAMAREDDY,Tadwai,Yerrapahad,18.292999,78.222999,01-01-2021,2.65
KAMAREDDY,Tadwai,Annaram,,,01-01-2021,24.58
KAMAREDDY,Yellareddy,Yellareddy,18.194033,78.019817,01-01-2021,
KAMAREDDY,BANSWADA ,HANMAJIPET ,,,01-01-2021,
KAMAREDDY,BHIKNOOR ,KACHAPOOR ,,,01-01-2021,
KAMAREDDY,BHIKNOOR ,MALLUPALLY ,,,01-01-2021,
KAMAREDDY,BICHKUNDA ,DOULTHAPUR ,,,01-01-2021,
KAMAREDDY,BICHKUNDA ,GUNDE NEMLI ,,,01-01-2021,
KAMAREDDY,BICHKUNDA ,PD DADGI ,,,01-01-2021,
KAMAREDDY,DOMAKONDA ,AMBERPET ,,,01-01-2021,
KAMAREDDY,DOMAKONDA ,ANCHANOOR ,,,01-01-2021,
KAMAREDDY,GANDHARI ,CHADMAL ,,,01-01-2021,
KAMAREDDY,GANDHARI ,GURJAL ,,,01-01-2021,
KAMAREDDY,LINGAMPET ,LINGAMPET ,,,01-01-2021,
KAMAREDDY,LINGAMPET ,PARMALLA,,,01-01-2021,
KAMAREDDY,MACHAREDDY ,RAJKHANPET ,,,01-01-2021,
KAMAREDDY,MADNOOR ,MADNOOR ,,,01-01-2021,
KAMAREDDY,MADNOOR ,RUSEGAON,,,01-01-2021,
KAMAREDDY,NAGIREDDYPET ,WADALPARTHY ,,,01-01-2021,
KAMAREDDY,NASRULLABAD ,BOMMADEVPALLY ,,,01-01-2021,
KAMAREDDY,NASRULLABAD ,BOPPASPALLY ,,,01-01-2021,
KAMAREDDY,NASRULLABAD ,MIRZAPUR ,,,01-01-2021,
KAMAREDDY,NIZAMSAGAR ,BURGUL ,,,01-01-2021,
KAMAREDDY,NIZAMSAGAR ,NARVA ,,,01-01-2021,
KAMAREDDY,NIZAMSAGAR ,VELGANOOR ,,,01-01-2021,
KAMAREDDY,PITLAM ,CHILLARGI ,,,01-01-2021,
KAMAREDDY,PITLAM ,GODMAGAON ,,,01-01-2021,
KAMAREDDY,PITLAM ,KURTHI / RAMPUR,,,01-01-2021,
KAMAREDDY,PITLAM ,NAGAMPALLY ,,,01-01-2021,
KAMAREDDY,PITLAM ,PITLAM ,,,01-01-2021,
KAMAREDDY,RAJAMPET ,SIDDAPOOR ,,,01-01-2021,
KAMAREDDY,RAMAREDDY ,DEVANPALLE ,,,01-01-2021,
KAMAREDDY,SADHASHIVNAGAR ,PADMAJI WADA ,,,01-01-2021,
KAMAREDDY,SADHASHIVNAGAR ,UTNOOR ,,,01-01-2021,
KAMAREDDY,TADWAI ,KANKAL,,,01-01-2021,
KAMAREDDY,YELLAREDDY ,THIMMAREDDY ,,,01-01-2021,
KAMAREDDY,YELLAREDDY ,YELLAREDDY ,,,01-01-2021,
KARIMNAGAR,Chigurumamidi,Bommanapalli,18.212599,79.230099,01-01-2021,
KARIMNAGAR,Chigurumamidi,Chigurumamidi,18.23625,79.201111,01-01-2021,4.01
KARIMNAGAR,Chigurumamidi,Ramancha,,,01-01-2021,11.11
KARIMNAGAR,Choppadandi,Rukmapur,18.5334,79.1461,01-01-2021,10.99
KARIMNAGAR,Ellandakunta ,Illanthukunta ,,,01-01-2021,3.25
KARIMNAGAR,Gangadhara,Burugupally,18.638599,79.0333,01-01-2021,6.81
KARIMNAGAR,Gangadhara,Gangadhara,18.579444,79.008888,01-01-2021,17.74
KARIMNAGAR,Ganneruvaram,Mylaram,18.3692,79.0731,01-01-2021,7.41
KARIMNAGAR,Huzurabad,Huzurabad,18.500305,79.144638,01-01-2021,2.42
KARIMNAGAR,Jammikunta,Vavilala,18.3963,79.5529,01-01-2021,3.52
KARIMNAGAR,Karimnagar,Nagnur,18.500305,79.144638,01-01-2021,2.36
KARIMNAGAR,Karimnagar,Karimnagar,18.436111,79.128333,01-01-2021,5.69
KARIMNAGAR,Keshavpatnam,Thadikal,,,01-01-2021,5.18
KARIMNAGAR,Manakondur,Laxmipur,18.446611,79.285194,01-01-2021,4.31
KARIMNAGAR,Ramadugu,Gundi,18.618833,79.087249,01-01-2021,6.34
KARIMNAGAR,Saidapur,Saidapur,18.2148,79.305174,01-01-2021,4.07
KARIMNAGAR,Thimmapur,Alugunur,,,01-01-2021,2.91
KARIMNAGAR,Thimmapur,Nedunur,18.3117,79.1383,01-01-2021,10.05
KARIMNAGAR,Veenavanka,Veenavanka,18.346111,79.420555,01-01-2021,4.71
KHAMMAM,Bonakal,Mustikunta,17.040809,80.223141,01-01-2021,0.85
KHAMMAM,Bonakal,Pedabeeravalli,17.05097222,80.30377778,01-01-2021,1.14
KHAMMAM,Chintakani,Pandillapalli,17.14880556,80.17716667,01-01-2021,1.97
KHAMMAM,Enkoor,Enkoor,17.32641667,80.44434167,01-01-2021,4.95
KHAMMAM,Enkoor,Timmaraopeta,17.37421944,80.3667,01-01-2021,2
KHAMMAM,Kallur,Kallur,17.209999,80.5467,01-01-2021,2.2
KHAMMAM,Kamepalli,Kothalingala,17.429453,80.237801,01-01-2021,4.43
KHAMMAM,Kamepalli,Ootkuru,17.45961111,80.29536111,01-01-2021,4.45
KHAMMAM,Khammam (R ),Theerthala,,,01-01-2021,1.78
KHAMMAM,Khammam (R ),M.V.Palem,17.2967,80.0969,01-01-2021,3.36
KHAMMAM,Khammam(U),Khammam I,17.2333,80.1333,01-01-2021,0.85
KHAMMAM,Khammam(U),Khammam-II,17.2525,80.143599,01-01-2021,1.4
KHAMMAM,Konijerla,Gubbagurthi,17.28016667,80.36358333,01-01-2021,2.43
KHAMMAM,Konijerla,Konijerla,17.2211,80.290799,01-01-2021,1.57
KHAMMAM,Kusumanchi,Jakkapally,17.14038056,79.96790278,01-01-2021,3.33
KHAMMAM,Kusumanchi,Kusumanchi,17.2208,79.958299,01-01-2021,4.76
KHAMMAM,Madhira,Madhira,16.93955556,80.3685,01-01-2021,6.87
KHAMMAM,Madhira,Nidhanapuram,16.92044444,80.41705556,01-01-2021,9.25
KHAMMAM,Mudigonda,Banapuram,17.06283889,80.12111111,01-01-2021,0.96
KHAMMAM,Mudigonda,Mudigonda,17.187499,80.0986,01-01-2021,1.55
KHAMMAM,Nelakondapalli,Bodulabanda,17.0930556,80.0160833,01-01-2021,0.46
KHAMMAM,Nelakondapalli,Buddaram,17.01656944,80.05926111,01-01-2021,3.11
KHAMMAM,Penuballi,Lankapalli,17.20305556,80.73527778,01-01-2021,9.1
KHAMMAM,Penuballi,Lingagudem,17.203055,80.735277,01-01-2021,
KHAMMAM,Penuballi,Penuballi,17.2135,80.6656111,01-01-2021,2.43
KHAMMAM,Penuballi,Tallapenta,,,01-01-2021,2.85
KHAMMAM,Raghundhapalem,Erlapudi,17.32465,80.27065,01-01-2021,4.5
KHAMMAM,Sathupalli,Cherukupalli,17.25627778,80.77747222,01-01-2021,1.35
KHAMMAM,Sathupalli,Prakashnagar,17.194199,80.894199,01-01-2021,38.85
KHAMMAM,Singareni,Madharam,17.53863889,80.22588889,01-01-2021,2.3
KHAMMAM,Thallada,Anjanapuram,17.2147,80.4625,01-01-2021,2.48
KHAMMAM,Thallada,Laxmipuram,17.16438056,80.49443889,01-01-2021,2.58
KHAMMAM,Thirumalayapalem,Kakaravai,17.30661111,79.83988889,01-01-2021,1.47
KHAMMAM,Thirumalayapalem,Tippareddigudem,17.37288889,79.98063889,01-01-2021,2.35
KHAMMAM,Thirumalayapalem,Bachode,17.372877,79.980619,01-01-2021,3.25
KHAMMAM,Thirumalayapalem,Tirumalayapalem,17.2997,79.900599,01-01-2021,2.35
KHAMMAM,Vemsur,Vemsur,17.144199,80.805,01-01-2021,2.75
KHAMMAM,Vemsur,Kallurigudem,17.11036111,80.74994444,01-01-2021,4.9
KHAMMAM,Vemsur,Kandukuru,17.07472222,80.83725,01-01-2021,2.12
KHAMMAM,Wyra,Siripuram,17.16046944,80.40075833,01-01-2021,2
KHAMMAM,Yerrupalem,Banigandlapadu,16.86169444,80.48302778,01-01-2021,6.62
KHAMMAM,Yerrupalem,Bheemavaram,16.93666667,80.51011111,01-01-2021,3.3
KUMURAM BHEEM,Asifabad,Asifabad,19.359617,79.286065,01-01-2021,18
KUMURAM BHEEM,Asifabad,Kommuguda,19.391953,79.250368,01-01-2021,1.83
KUMURAM BHEEM,Bejjur,Bejjur,19.356582,79.862302,01-01-2021,3.53
KUMURAM BHEEM,Bejjur,Rebbana,19.400277,79.749999,01-01-2021,2.74
KUMURAM BHEEM,Dahegaon,Dahegaon,19.250555,79.702222,01-01-2021,16.78
KUMURAM BHEEM,Jainoor,Rasimetta,19.400645,78.996121,01-01-2021,4.65
KUMURAM BHEEM,Kagaznagar,Jambugaon,19.325138,79.576266,01-01-2021,13.35
KUMURAM BHEEM,Kagaznagar,Kagaznagar,19.355709,79.496997,01-01-2021,3.98
KUMURAM BHEEM,Kerameri,Bheemangondi,19.423766,79.152032,01-01-2021,9.53
KUMURAM BHEEM,Kerameri,Kerameri,19.444,79.05625,01-01-2021,9.01
KUMURAM BHEEM,Kowthala,Kowthala,19.521899,79.7324,01-01-2021,4.4
KUMURAM BHEEM,Lingapur,Loddiguda,19.23191,79.06601,01-01-2021,1.25
KUMURAM BHEEM,Penchikalpet,Yelkapally,19.278088,79.756802,01-01-2021,14.56
KUMURAM BHEEM,Rebbena,Rebbena II,19.257,79.415972,01-01-2021,6.2
KUMURAM BHEEM,Sirput-T,Sirput-T,19.479999,79.569999,01-01-2021,
KUMURAM BHEEM,Tiryani,Bheempur,19.110748,79.203166,01-01-2021,3.9
KUMURAM BHEEM,Tiryani,Pangidimadra,19.251129,79.14703,01-01-2021,3.12
KUMURAM BHEEM,Tiryani,Tiryani,19.174472,79.272249,01-01-2021,
KUMURAM BHEEM,Wankidi,Savathi,19.57,79.27,01-01-2021,7.33
KUMURAM BHEEM,Wankidi,Wankidi,19.479999,79.32,01-01-2021,7.75
MAHABUBABAD,Bayyaram,Balajipeta,17.610599,80.087199,01-01-2021,3.84
MAHABUBABAD,Bayyaram,Gurimalla***,17.4135,80.0466,01-01-2021,5.25
MAHABUBABAD,Bayyaram,Kothagudem***,17.3725,80.1088,01-01-2021,6.95
MAHABUBABAD,Bayyaram,Kothapeta***,17.3346,80.0907,01-01-2021,2.12
MAHABUBABAD,Bayyaram,Motlathimapuram***,17.41747,80.0647,01-01-2021,4.98
MAHABUBABAD,Chinna Gudur,Chinna Gudur,17.514565,79.885498,01-01-2021,3.65
MAHABUBABAD,Dhantalapally,Dhantalapally,17.514699,79.7347,01-01-2021,1.93
MAHABUBABAD,Dornakal,Gollacherla,17.467899,80.0922,01-01-2021,1.45
MAHABUBABAD,Dornakal,Mannegudem,17.374115,80.043883,01-01-2021,3.7
MAHABUBABAD,Dornakal,Perumalla Sankeesa,17.420199,80.053599,01-01-2021,1.65
MAHABUBABAD,Gangaram,Gangaram,17.824,80.1974,01-01-2021,2.8
MAHABUBABAD,Gangaram,Komatlagudem,17.8808,80.230599,01-01-2021,8.1
MAHABUBABAD,Garla,Garla***,17.2924,80.0948,01-01-2021,4.13
MAHABUBABAD,Garla,Maddivancha***,17.3147,80.0554,01-01-2021,5.12
MAHABUBABAD,Gudur,Gudur,17.800499,79.981099,01-01-2021,4.3
MAHABUBABAD,Kesamudram,Kalwala,17.6555,79.8869,01-01-2021,4.1
MAHABUBABAD,Kesamudram,Kesamudram,17.6816,79.906899,01-01-2021,4.11
MAHABUBABAD,Koravi,Ayyagaripally,17.502999,79.988599,01-01-2021,2.45
MAHABUBABAD,Koravi,Mogilicherla,17.540299,80.0335,01-01-2021,2.65
MAHABUBABAD,Koravi,Upperagudem,17.4494,80.035499,01-01-2021,4.06
MAHABUBABAD,Kothaguda,Kothaguda,17.910499,80.055099,01-01-2021,8.42
MAHABUBABAD,Kothaguda,Madagudem,17.3217,80.0152,01-01-2021,3.52
MAHABUBABAD,Kothaguda,Sidireddypally,17.994099,80.0451,01-01-2021,6.11
MAHABUBABAD,Mahabubabad,Amanagal,17.593999,79.909899,01-01-2021,4.3
MAHABUBABAD,Mahabubabad,Mahabubabad,17.598299,80.001099,01-01-2021,3.15
MAHABUBABAD,Marripeda,Giripuram,17.369232,79.878278,01-01-2021,5.35
MAHABUBABAD,Marripeda,Marripeda,17.385199,79.8941,01-01-2021,4.15
MAHABUBABAD,Marripeda,Yellampet,17.450099,79.8631,01-01-2021,2.24
MAHABUBABAD,Narasihulapet,Komalavancha,17.529999,79.789,01-01-2021,3.11
MAHABUBABAD,Nellikudur,Chinna Nagaram,17.6377,79.7746,01-01-2021,7.15
MAHABUBABAD,Nellikudur,Nellikudur,17.5897,79.7597,01-01-2021,3.41
MAHABUBABAD,Nellikudur,Ramanjapuram,17.6159,79.7249,01-01-2021,4.05
MAHABUBABAD,Peddavangara,Waddekothapalli,17.527081,79.558433,01-01-2021,4
MAHABUBABAD,Torrur,Haripirala,17.5225,79.645,01-01-2021,1.68
MAHABUBABAD,Torrur,Torrur,17.583599,79.6611,01-01-2021,4.65
MAHABUBNAGAR,Addakal,Addakal,16.51611111,77.934727,01-01-2021,3.94
MAHABUBNAGAR,Balanagar,Udityal,16.965124,78.122216,01-01-2021,7.29
MAHABUBNAGAR,Bhoothpur,Bhoothpur,16.697147,78.055246,01-01-2021,4.22
MAHABUBNAGAR,Bhoothpur,Elkicherla,16.623767,78.116336,01-01-2021,6.98
MAHABUBNAGAR,CC Kunta,Damagnapur,16.5,77.77361111,01-01-2021,1.36
MAHABUBNAGAR,CC Kunta,Kurumurthy,16.441442,77.816757,01-01-2021,12.1
MAHABUBNAGAR,CC Kunta,Thirmalapur,16.463719,77.825202,01-01-2021,1.67
MAHABUBNAGAR,Devarkadara,Chinnarajmoor,16.68027778,77.77416667,01-01-2021,11.6
MAHABUBNAGAR,Devarkadara,Devarakadra,16.6058,77.832836,01-01-2021,8.97
MAHABUBNAGAR,Devarkadara,Koukuntla,16.522954,77.859849,01-01-2021,7.35
MAHABUBNAGAR,Devarkadara,Meenuguvanipally,16.59570278,77.82498056,01-01-2021,5.61
MAHABUBNAGAR,Gandeed,Mohammadabad,16.88749,77.902887,01-01-2021,
MAHABUBNAGAR,Gandeed,Salkerpet,16.926205,77.791763,01-01-2021,4.71
MAHABUBNAGAR,Hanwada,Hanwada,16.808381,77.897252,01-01-2021,6.25
MAHABUBNAGAR,Hanwada,Vepur,16.836501,77.793152,01-01-2021,6.12
MAHABUBNAGAR,Jadcherla,Jadcherla,16.774181,78.122404,01-01-2021,10.92
MAHABUBNAGAR,Jadcherla,Konded,16.815457,78.272333,01-01-2021,8.41
MAHABUBNAGAR,Koilkonda,Dammaipally,16.778656,77.877742,01-01-2021,2.9
MAHABUBNAGAR,Koilkonda,Koilkonda,16.755147,77.789348,01-01-2021,1.48
MAHABUBNAGAR,Mahabubnagar (R) ,Kodur,16.67811389,77.92589444,01-01-2021,7.01
MAHABUBNAGAR,Mahabubnagar(U),Yenugonda,16.761294,78.020981,01-01-2021,8.21
MAHABUBNAGAR,Midjil,Kothapalli,16.7506,78.2315,01-01-2021,4.24
MAHABUBNAGAR,Midjil,Midjil,16.726583,78.318739,01-01-2021,12.35
MAHABUBNAGAR,MOOSPET,MOOSPET,16.603141,77.979677,01-01-2021,7.21
MAHABUBNAGAR,Nawabpet,Nawabpet,16.887999,78.0239,01-01-2021,4.5
MAHABUBNAGAR,Rajapur,Rajapur,16.8378,78.1538,01-01-2021,17.67
MANCHERIAL,Bellampally,Bellampally I,19.072388,79.502638,01-01-2021,14.4
MANCHERIAL,Bhimini,Rampur,19.1695,79.583939,01-01-2021,1.9
MANCHERIAL,Chennur,Chennur I,18.852222,79.780222,01-01-2021,5.87
MANCHERIAL,Chennur,Kommera,18.7725,79.79981,01-01-2021,1.37
MANCHERIAL,Dandepally,Myadaripet,19.005028,79.144671,01-01-2021,3.79
MANCHERIAL,Hazipur,Hazipur,18.874803,79.322716,01-01-2021,3.17
MANCHERIAL,Jaipur,Jaipur,18.844277,79.579972,01-01-2021,2.67
MANCHERIAL,Jaipur,Kundaram,18.787918,79.631578,01-01-2021,12
MANCHERIAL,Jannaram,Indanpally,19.164226,78.910552,01-01-2021,3.64
MANCHERIAL,Kannepally,Jankapur,18.9999,79.40806,01-01-2021,1.83
MANCHERIAL,Kasipet,Kondapur,19.039139,79.397808,01-01-2021,1.55
MANCHERIAL,Kotapally,Kotapally,18.95,79.881944,01-01-2021,8.61
MANCHERIAL,Laxettipet,Luxettipet,18.877722,79.202054,01-01-2021,3.5
MANCHERIAL,Mandamarri,Mandamarri,18.978679,79.477854,01-01-2021,4.27
MANCHERIAL,Mandamarri,Ponnaram,18.940004,79.544712,01-01-2021,11.74
MANCHERIAL,Nennel,Nennel,19.079833,79.627194,01-01-2021,3.57
MANCHERIAL,Tandur,Tandur ,19.157871,79.456254,01-01-2021,11.11
MANCHERIAL,Vemanpally,Neelwai,19.04799,79.81505,01-01-2021,0.69
MEDAK,Alladurg,Alladurg,17.988964,77.923766,01-01-2021,20.15
MEDAK,Alladurg,Muslapur,,,01-01-2021,
MEDAK,Chegunta,Chegunta,17.978333,78.459722,01-01-2021,6.8
MEDAK,Chegunta,Chandiapet,17.9341,78.5186,01-01-2021,11.6
MEDAK,Chilipade,Chilipade,17.52161,78.07166,01-01-2021,26
MEDAK,Havelighanpur,Mutayapally,18.05046,78.130707,01-01-2021,6.4
MEDAK,Havelighanpur,Nagaram (Fareedpur),18.04398,78.11515,01-01-2021,10
MEDAK,Kowdipally,Kowdipally,17.895833,78.208333,01-01-2021,13.7
MEDAK,Kulcharam,Rangampet,17.945099,78.1176,01-01-2021,21.1
MEDAK,Manaharabad,Manaharabad,17.45583,78.27446,01-01-2021,8.2
MEDAK,Medak,Medak,18.052799,78.270799,01-01-2021,12.2
MEDAK,Medak,Pillikotal,18.01261,78.16118,01-01-2021,4.4
MEDAK,Narasapur,Narasapur,17.735,78.2819,01-01-2021,13.4
MEDAK,Narasingi,Narasingi,18.02491,78.25505,01-01-2021,11.9
MEDAK,Narasapur,Reddypally,17.779999,78.259,01-01-2021,11.6
MEDAK,Nizampet,Naskal,18.1614,78.547599,01-01-2021,6.6
MEDAK,Papannapet,Papannapet,18.04217,78.085354,01-01-2021,8.65
MEDAK,Ramayampet,Ramayampet,18.07038,78.25505,01-01-2021,8.65
MEDAK,Regode,T.lingampally,17.5471,77.49507,01-01-2021,8.15
MEDAK,Shankarampet ,Gavvalapalli,17.971,78.372,01-01-2021,5.75
MEDAK,Shankarampet R,Shankarampet,18.0517,77.9172,01-01-2021,10.55
MEDAK,Shivampet,Shivampet,17.46539,78.22027,01-01-2021,20
MEDAK,Shivampet,Gudur,17.7863,78.369999,01-01-2021,19.8
MEDAK,Shivampet,Usrikapally,17.4916,78.23419,01-01-2021,17
MEDAK,Tekmal,Tekmal,17.975399,78.0304,01-01-2021,17
MEDAK,Toopran,Islampur,17.841299,78.4775,01-01-2021,2.75
MEDAK,Toopran,Toopran,17.50275,78.28369,01-01-2021,6.55
MEDAK,Yeldurthy,Edulapally,17.5656,78.21029,01-01-2021,14
MEDAK,Yeldurthy,Kukunoor,17.55035,78.192,01-01-2021,5.2
MEDAK,Yeldurthy,Ramayapally,17.56306,78.19438,01-01-2021,6.85
MEDAK,Yeldurthy,Yeldurthy,,,01-01-2021,
MEDAK,Alladurg,Peddapur,,,01-01-2021,
MEDAK,Chilipched,Chilipched,,,01-01-2021,
MEDAK,Haveli Ghanpur,Kuchanpally,,,01-01-2021,
MEDAK,Haveli Ghanpur,Nagapur,,,01-01-2021,
MEDAK,Haveli Ghanpur,Rajpet,,,01-01-2021,
MEDAK,Haveli Ghanpur,Sardana,,,01-01-2021,
MEDAK,Kulcharam,Kulcharam,,,01-01-2021,
MEDAK,Manoharabad,Muppireddypally,,,01-01-2021,
MEDAK,Masaipet,Masaipet,,,01-01-2021,
MEDAK,Medak,Pathur,,,01-01-2021,
MEDAK,Medak,Perur,,,01-01-2021,
MEDAK,Medak,Rajpally,,,01-01-2021,
MEDAK,Narsapur,Chippalthurthy,,,01-01-2021,
MEDAK,Narsapur,Kagazmaddur,,,01-01-2021,
MEDAK,Narsapur,Lingapur,,,01-01-2021,
MEDAK,Narsingi,Narsingi,,,01-01-2021,
MEDAK,Papannapet,Kodapaka,,,01-01-2021,
MEDAK,Ramayampet,Dharmaram,,,01-01-2021,
MEDAK,Ramayampet,Katriyal,,,01-01-2021,
MEDAK,Ramayampet,Ramayampet,,,01-01-2021,
MEDAK,Regode,Gajwada,,,01-01-2021,
MEDAK,Shankarampet-R,Dharpally,,,01-01-2021,
MEDAK,Shankarampet-R,Shankarampet-R,,,01-01-2021,
MEDAK,Shivampet,Sikindlapur,,,01-01-2021,
MEDAK,Tekmal,Dhannaram,,,01-01-2021,
MEDAK,Tekmal,Yellupet,,,01-01-2021,
MEDAK,Toopran,Malkapur,,,01-01-2021,
MEDAK,Toopran,Nagulapally,,,01-01-2021,
MEDCHAL,Alwal,Old Alwal,17.494,78.508,01-01-2021,6.55
MEDCHAL,Bachupalli,Nizampet,17.52,78.38,01-01-2021,4.09
MEDCHAL,Balanagar,Balanagar 1,17.466,78.448,01-01-2021,4.6
MEDCHAL,Balanagar,Balanagar 2,17.466,78.448,01-01-2021,4.29
MEDCHAL,Balanagar,Fethenagar,17.46,78.44,01-01-2021,8.1
MEDCHAL,Dundigal,Dulapally,17.55,78.46,01-01-2021,15.1
MEDCHAL,Dundigal,Dundigal,17.608,78.416,01-01-2021,19.6
MEDCHAL,Dundigal,Shambhirpur,18.0188,79.7672,01-01-2021,6.18
MEDCHAL,Ghatkesar,Ghatkesar,17.447,78.678999,01-01-2021,5.16
MEDCHAL,Kapra,Balaji Nagar,17.547,78.547,01-01-2021,8.2
MEDCHAL,Kapra,Cherlapally,17.468,78.611,01-01-2021,1.45
MEDCHAL,Keesara,Kessara,17.484,78.575,01-01-2021,
MEDCHAL,Keesara,Yadgarpally,17.549999,78.63,01-01-2021,10.45
MEDCHAL,Kukatpally,Kaithalapur,17.47,78.4,01-01-2021,3.4
MEDCHAL,Kukatpally,Kukatpally 1,17.481,78.397,01-01-2021,7.1
MEDCHAL,Kukatpally,Kukatpally 2,17.49,78.39,01-01-2021,5.05
MEDCHAL,Malkajgiri,Malkajgiri,17.448999,78.535,01-01-2021,11.06
MEDCHAL,Medchal,Gundla pochampally,17.567,78.479999,01-01-2021,7.33
MEDCHAL,Medchal,Medchal,17.626505,78.494569,01-01-2021,4.65
MEDCHAL,Medchal,Pudur,,,01-01-2021,
MEDCHAL,Qutubullapur,Gajularamaram 1,17.53,78.42,01-01-2021,1.6
MEDCHAL,Qutubullapur,Gajularamaram 2,17.53,78.42,01-01-2021,1.55
MEDCHAL,Qutubullapur,Jeedimetla,17.523611,78.442777,01-01-2021,12.25
MEDCHAL,Qutubullapur,Qutubullapur 1,17.498,78.454999,01-01-2021,
MEDCHAL,Qutubullapur,Qutubullapur 2,17.501944,78.462222,01-01-2021,18.99
MEDCHAL,Qutubullapur,Shapurnagar,,,01-01-2021,
MEDCHAL,shahmirpet,Jagamguda,17.615286,78.627757,01-01-2021,
MEDCHAL,shahmirpet,Pothaipally,17.551,78.539999,01-01-2021,9.22
MEDCHAL,shahmirpet,Shahmirpet,17.582999,78.573999,01-01-2021,1.9
MEDCHAL,shahmirpet,Turkapally,17.667,78.594,01-01-2021,1.95
MEDCHAL,Uppal,Uppal,17.408,78.584,01-01-2021,3.41
MEDCHAL,MEDIPALLY,MEDIPALLY,,,01-01-2021,6.65
MEDCHAL,Alwal,Yapral Sub station,,,01-01-2021,
MEDCHAL,Ghatkesar,Singapur Township Sub Station,,,01-01-2021,
MEDCHAL,Kapra,N.N Colony Kapra Sub Station,,,01-01-2021,
MEDCHAL,Kapra,Balaji Nagar Substation,,,01-01-2021,
MEDCHAL,Keesara ,Keesara Sub station,,,01-01-2021,
MEDCHAL,Keesara ,Jafarguda MPP School (Godumakunta),,,01-01-2021,
MEDCHAL,Kukatpally,Kukatpally MRO Office,,,01-01-2021,
MEDCHAL,Malkajgiri,Moula - Ali Sub station,,,01-01-2021,
MEDCHAL,Medchal,Dabilpur park in GP Layout,,,01-01-2021,
MEDCHAL,Medchal,Banda Madaram Sub station,,,01-01-2021,
MEDCHAL,Shamirpet,Ponnala ZPHS,,,01-01-2021,
MEDCHAL,Shamirpet,DevaraYamjal Near Mission Bhagirath Compound,,,01-01-2021,
MEDCHAL,Shamirpet,Ailayabad ZPHS,,,01-01-2021,
MEDCHAL,Uppal,Mallapur Sub Station             ,,,01-01-2021,
MEDCHAL,Medipally,Chengicharla Sub Station,,,01-01-2021,
MEDCHAL,Medipally,Medipally ZPHS,,,01-01-2021,
MEDCHAL,M.C.Pally,Laxmapur Sub Station,,,01-01-2021,
MULUGU,Eturu Nagaram,Eturu Nagaram (D),18.324,80.414,01-01-2021,12.05
MULUGU,Eturu Nagaram,Eturu Nagaram (S),18.3374,80.423199,01-01-2021,12.35
MULUGU,Govindaraopet,Pasra,18.207438,80.171524,01-01-2021,3.21
MULUGU,Govindaraopet,Project Nagar,18.233333,80.183333,01-01-2021,3.45
MULUGU,Kannaigudem,Kannaigudem,18.526299,80.345399,01-01-2021,4.95
MULUGU,Mangapet,Kamalapuram,18.2659,80.474699,01-01-2021,11.78
MULUGU,Mangapet,Mallur,18.2188,80.562,01-01-2021,8.45
MULUGU,Mangapet,Rajupet,18.153899,80.6256,01-01-2021,4.25
MULUGU,Mulugu,Jakkaram(D),18.16763889,79.88155556,01-01-2021,10.82
MULUGU,Mulugu,Jakkaram(S),18.163199,79.8869,01-01-2021,10.75
MULUGU,Mulugu,Kasimdevpet,18.166099,79.9977,01-01-2021,2.95
MULUGU,Mulugu,Mulugu,18.192199,79.942499,01-01-2021,3.72
MULUGU,Tadvai,Beerelli,18.10219444,80.43202778,01-01-2021,10.21
MULUGU,Tadvai,Gangaram,18.1755,80.3708,01-01-2021,4.54
MULUGU,Tadvai,Lavvala,18.170699,80.2632,01-01-2021,5.35
MULUGU,Tadvai,Medaram,18.3138,80.2458,01-01-2021,3.85
MULUGU,Tadvai,Tadvai,18.2365,80.3146,01-01-2021,8.42
MULUGU,Vankatapur,Laxmidevipet,18.2936,79.955899,01-01-2021,2.55
MULUGU,Venkatapuram,Alubaka ***,18.20502778,80.67138889,01-01-2021,6.72
MULUGU,Venkatapuram,Edira ***,18.13855556,80.73094444,01-01-2021,4.23
MULUGU,Venkatapuram,Marikal,18.310623,80.499136,01-01-2021,6.56
MULUGU,Venkatapuram,Nuguru ***,18.34036111,80.554,01-01-2021,4.72
MULUGU,Wazeedu,Jagannadhapuram ***,18.43163889,80.50836111,01-01-2021,9.68
MULUGU,Wazeedu,Peddagollagudem ***,18.48641667,80.46461111,01-01-2021,9.1
MULUGU,Wazeedu,Perur ***,18.53205556,80.39388889,01-01-2021,10.15
MULUGU,Wazeedu,Tekulagudem ***,18.56111111,80.40469444,01-01-2021,9.34
NAGARKURNOOL,Achampet,Achampet,16.398306,78.651523,01-01-2021,8.44
NAGARKURNOOL,Amarabad,Domalapenta,16.10322,78.89822,01-01-2021,4.57
NAGARKURNOOL,Amarabad,Madhavanipally,16.37868889,78.86608333,01-01-2021,4.52
NAGARKURNOOL,Amarabad,Mannanoor,16.374166,78.771666,01-01-2021,13.07
NAGARKURNOOL,Amarabad,Vatverlapallly,,,01-01-2021,
NAGARKURNOOL,Balmur,Balmur,16.331127,78.566382,01-01-2021,10.72
NAGARKURNOOL,Balmur,Banala,16.32096389,78.63925556,01-01-2021,9.35
NAGARKURNOOL,Balmur,Gattuthummena  ,16.40607778,78.553425,01-01-2021,3.5
NAGARKURNOOL,Bijinepalli,Bijinepalli,16.535278,78.196422,01-01-2021,9.11
NAGARKURNOOL,Charakonda,Charakonda,16.69554,78.71074,01-01-2021,2.15
NAGARKURNOOL,Kalwakuthy,GUNDUR,,,01-01-2021,4.4
NAGARKURNOOL,Kalwakuthy,Kalwakuthy,16.666999,78.488,01-01-2021,9.23
NAGARKURNOOL,Kalwakuthy,Lingasanipally,16.5528,78.469399,01-01-2021,
NAGARKURNOOL,Kalwakuthy,Marchala,16.691699,78.4542,01-01-2021,
NAGARKURNOOL,Kodair,Kodair,16.269624,78.274343,01-01-2021,0.93
NAGARKURNOOL,Kodair,Thurkadinne,16.29225278,78.23323056,01-01-2021,0.57
NAGARKURNOOL,Kollapur,Kollapur,16.106999,78.306,01-01-2021,2.17
NAGARKURNOOL,Kollapur,Molachintalapally,16.1389,78.4181,01-01-2021,0.87
NAGARKURNOOL,Lingal,Ambatipally,16.277,78.446,01-01-2021,2.73
NAGARKURNOOL,Lingal,Lingal,16.2681,78.5208,01-01-2021,4.44
NAGARKURNOOL,Nagarkurnool,Manthati,16.440149,78.351615,01-01-2021,3.48
NAGARKURNOOL,Nagarkurnool,Nagarkurnool,16.491743,78.302619,01-01-2021,10.13
NAGARKURNOOL,Padra,Padra,16.43365,78.87762,01-01-2021,2.22
NAGARKURNOOL,Peddakothapally,Maredumandinne,16.21548333,78.40606389,01-01-2021,3.37
NAGARKURNOOL,Pentlavelle,Pentlavelle,16.07544,78.2595,01-01-2021,2.02
NAGARKURNOOL,Tadoor,Tadoor,16.515833,78.359999,01-01-2021,
NAGARKURNOOL,Tadoor,Vengampally,16.544155,78.398824,01-01-2021,3.84
NAGARKURNOOL,Telkapally,Karvanga,16.48838611,78.42719167,01-01-2021,2.68
NAGARKURNOOL,Telkapally,Telkapally,16.435091,78.440307,01-01-2021,1.46
NAGARKURNOOL,Thimmajipet,Gummakonda,16.6224,78.189999,01-01-2021,4.07
NAGARKURNOOL,Uppununuthala,Laxmapur,16.45913889,78.59918333,01-01-2021,3.4
NAGARKURNOOL,Uppununuthala,Uppununthala,16.450018,78.591328,01-01-2021,3.52
NAGARKURNOOL,Urkonda,Urkonda,16.73127,78.41119,01-01-2021,11.48
NAGARKURNOOL,Vangoor,Vangoor,16.612799,78.6225,01-01-2021,3
NAGARKURNOOL,Veldanda,Veldanda,16.73106,78.5211,01-01-2021,10.83
NALGONDA,Advidevulapally,Ulsaipalem,16.706822,79.499703,01-01-2021,1.2
NALGONDA,Anumula,Anumula,16.77561111,79.27144444,01-01-2021,4.76
NALGONDA,Anumula,Chintagudem,16.833094,79.292086,01-01-2021,2.95
NALGONDA,Anumula,Pulimamidi,16.884037,79.267224,01-01-2021,4.95
NALGONDA,Anumula,Rajavaram,16.70663889,79.40966667,01-01-2021,7.6
NALGONDA,Anumula,Sreerampur,16.72222222,79.30194444,01-01-2021,2.46
NALGONDA,Bommakal,Bommakal,,,01-01-2021,
NALGONDA,Chandampet,Buddoni thanda,16.553849,78.962028,01-01-2021,9.2
NALGONDA,Chandampet,Chandampet,16.578477,78.888363,01-01-2021,6.05
NALGONDA,Chandampet,Kambalapally,16.450582,79.114232,01-01-2021,2.2
NALGONDA,Chandampet,Thelidevarapally,16.505545,78.969167,01-01-2021,12.32
NALGONDA,Chandampet,Yelmalmanda,16.49277778,79.145,01-01-2021,
NALGONDA,Chandur,Angadipet,16.98405556,79.02122222,01-01-2021,5.86
NALGONDA,Chandur,Bangarigadda,16.98577778,79.01002778,01-01-2021,4.96
NALGONDA,Chandur,Chandur,16.98047222,79.04952778,01-01-2021,10.18
NALGONDA,Chandur,Chandur,,,01-01-2021,3.2
NALGONDA,Chandur,Donipamula,16.983027,78.980496,01-01-2021,
NALGONDA,Chandur,Ghattuppal,17.057975,78.915649,01-01-2021,6.11
NALGONDA,Chandur,Nermata,17.00213889,78.98341667,01-01-2021,9.48
NALGONDA,Chandur,Pullemla,17.02622222,79.02136111,01-01-2021,8.99
NALGONDA,Chandur,Sirdepally,17.01602778,79.06169444,01-01-2021,6.14
NALGONDA,Chinthapally,Kurmed Gate,16.892055,78.755194,01-01-2021,
NALGONDA,Chinthapally,Teeded,16.792111,78.909846,01-01-2021,
NALGONDA,Chityala,Urumadla,17.182742,79.090249,01-01-2021,4.94
NALGONDA,Chityala,Veliminedu,17.228916,79.020166,01-01-2021,
NALGONDA,Devarakonda,Kamalapur,16.72547222,78.86175,01-01-2021,6.72
NALGONDA,Devarakonda,Konda Bheemanapally,16.69391667,78.86025,01-01-2021,4.87
NALGONDA,Devarakonda,Padamtipally,16.68838889,78.80213889,01-01-2021,8.49
NALGONDA,Devarakonda,Tatikole,16.65111111,78.85719444,01-01-2021,
NALGONDA,Gundlapally,Dhindi,16.552222,78.6925,01-01-2021,4.16
NALGONDA,Gundlapally,Vavikole,16.66933333,78.75141667,01-01-2021,3.33
NALGONDA,Gurrampode,Gurrampode,16.851709,79.091378,01-01-2021,0.82
NALGONDA,Gurrampode,Koppole,16.91047222,79.15686111,01-01-2021,1.42
NALGONDA,Gurrampode,Palvai,16.75244,79.024457,01-01-2021,4.74
NALGONDA,K.Mallepally,K.Mallepally,16.729392,78.981033,01-01-2021,3.48
NALGONDA,kanagala,kanagala,16.937341,79.198425,01-01-2021,2.77
NALGONDA,Kattangur,Cheruvu Annaram,17.21844444,79.36608333,01-01-2021,12.38
NALGONDA,Kattangur,Kattangur,17.161891,79.320303,01-01-2021,3.99
NALGONDA,Kattangur,Pamangundla,17.180769,79.267943,01-01-2021,8.74
NALGONDA,Kethepally,Kethepally,17.147211,79.511941,01-01-2021,1.66
NALGONDA,Kompalli,Kompalli,17.09741667,79.00191667,01-01-2021,
NALGONDA,Kurmed Gate,Kurmed Gate,,,01-01-2021,
NALGONDA,Madugulapally,Kannekal,16.94138889,79.3875,01-01-2021,4.48
NALGONDA,Marriguda,Antampet,17.036111,78.888888,01-01-2021,8.89
NALGONDA,Marriguda,Khudabhaksh pally,17.02913889,78.83172222,01-01-2021,16.84
NALGONDA,Marriguda,Lenkala pally,16.98722222,78.94816667,01-01-2021,4.18
NALGONDA,Marriguda,Marriguda,16.94,78.86377778,01-01-2021,
NALGONDA,Marriguda,Namapur,17.02688889,78.92738889,01-01-2021,2.78
NALGONDA,Marriguda,Sarampet,16.99188889,78.89580556,01-01-2021,22.47
NALGONDA,Marriguda,Shivannagudam,17.00558333,78.8845,01-01-2021,12.4
NALGONDA,Marriguda,Shivannagudam,16.99697222,78.88975,01-01-2021,7.17
NALGONDA,Miryalguda,B.Annaram,16.778908,79.558144,01-01-2021,0.69
NALGONDA,Miryalguda,Kothagudem,16.824506,79.598463,01-01-2021,1.33
NALGONDA,Munugode,Kistapur,17.169309,79.024404,01-01-2021,2.31
NALGONDA,Munugode,Kompalli,17.099308,78.993715,01-01-2021,4.94
NALGONDA,Munugode,Munugode,17.065875,79.077438,01-01-2021,5.32
NALGONDA,Nakrekal,Arlagaddagudam,17.13280556,79.37808333,01-01-2021,7.95
NALGONDA,Nakrekal,Nakrekal,17.163631,79.429158,01-01-2021,4.17
NALGONDA,Nakrekal,Palem,17.22166667,79.47133333,01-01-2021,4.2
NALGONDA,Nakrekal,Vallabhapur,17.23494444,79.49755556,01-01-2021,1.16
NALGONDA,Nalgonda,Mushampally,16.97492,79.32478,01-01-2021,3.15
NALGONDA,Nalgonda,Nalgonda,17.038588,79.253982,01-01-2021,
NALGONDA,Nalgonda,Narsingbhatla,17.016163,79.148493,01-01-2021,4.8
NALGONDA,Nalgonda,Panagal,17.076937,79.311747,01-01-2021,2.8
NALGONDA,Nalgonda,S L B C G V guda,17.060183,79.300907,01-01-2021,3.45
NALGONDA,Nalgonda,Seetarampuram,17.110312,79.216751,01-01-2021,9.38
NALGONDA,Nalgonda,Velugupally,16.991392,79.306945,01-01-2021,4.3
NALGONDA,Narketpalli,Akkenepally,17.301,79.24425,01-01-2021,4.99
NALGONDA,Narketpalli,Narketpalli,17.20025,79.191305,01-01-2021,8.87
NALGONDA,Neredgomma,Kothapally,16.59344444,79.03491667,01-01-2021,3.02
NALGONDA,Neredgomma,Neradugomma,16.597169,78.972569,01-01-2021,11.35
NALGONDA,Nidamanuru,Nidamanur,16.830555,79.374999,01-01-2021,4.25
NALGONDA,Nidamanuru,Thummadam,16.809982,79.42695,01-01-2021,4.35
NALGONDA,P.A Pally,Angadipet,16.716555,79.084472,01-01-2021,2.76
NALGONDA,P.A Pally,Azmapur,16.601486,79.0789,01-01-2021,3.92
NALGONDA,P.Kondaram,P.Kondaram,,,01-01-2021,
NALGONDA,Peddavoora,Peddavoora,16.74399,79.187767,01-01-2021,1.49
NALGONDA,Peddavoora,Pulicherla,16.655305,79.174829,01-01-2021,3.88
NALGONDA,Peddavoora,Velmaguda,16.764,79.20325,01-01-2021,4.17
NALGONDA,Peddavoora,Vijayapuri North,16.58027778,79.31477778,01-01-2021,14.42
NALGONDA,Shaligowraram,Baironibanda,17.301938,79.301465,01-01-2021,8.49
NALGONDA,Shaligowraram,P.Kondaram,17.249444,79.423055,01-01-2021,3.99
NALGONDA,Shaligowraram,Vallala,17.24661111,79.389,01-01-2021,4.5
NALGONDA,Thiparthy,Pedda Suraram,17.08380556,79.33866667,01-01-2021,4.82
NALGONDA,Thiparthy,Thipparthy,17.01375,79.418305,01-01-2021,1.09
NALGONDA,Thiparthy,Mamidala,17.070712,79.47315,01-01-2021,5.21
NALGONDA,Tirumalagiri(Sagar),Nellikal,16.649373,79.301538,01-01-2021,21.28
NALGONDA,Vemulapally,Bommakal,17.03225,79.52422222,01-01-2021,4.09
NALGONDA,Vemulapally,Settipalem,16.951483,79.554738,01-01-2021,5.98
NARAYANPET,Damargidda,Kanukurthy,16.889856,77.470614,01-01-2021,5.2
NARAYANPET,DHANWADA ,DHANWADA ,16.639525,77.658409,01-01-2021,5.65
NARAYANPET,Kosigi,Kosigi,16.984631,77.705505,01-01-2021,3.85
NARAYANPET,Krishna,Chegunta,16.477596,77.311796,01-01-2021,7.82
NARAYANPET,Krishna,Hindhupur,16.415,77.34563,01-01-2021,4.09
NARAYANPET,Maddur,Maddur,16.857,77.607,01-01-2021,7.61
NARAYANPET,Maganur,Maganur,16.458515,77.431209,01-01-2021,4.26
NARAYANPET,Makthal,Makthal,16.500518,77.500096,01-01-2021,2.56
NARAYANPET,Marikal,Marikal,16.592044,77.698167,01-01-2021,10.72
NARAYANPET,Narayanpet,Appireddypally  ,16.73403,77.57334,01-01-2021,4.55
NARAYANPET,Narayanpet,Kollampally,16.680069,77.631447,01-01-2021,3.75
NARAYANPET,Narayanpet,Kotakonda,16.758081,77.642021,01-01-2021,3.48
NARAYANPET,Narayanpet,Narayanapet,16.7423,77.481199,01-01-2021,2.91
NARAYANPET,Narva,Narva,16.4706,77.656699,01-01-2021,8.07
NARAYANPET,Utkoor,Pulimamidi,16.58111,77.552755,01-01-2021,5.45
NARAYANPET,Utkoor,Utkoor,16.6407,77.5003,01-01-2021,3.46
NARAYANPET,Utkoor,Chinnaporla,16.591504,77.536202,01-01-2021,5.36
NIRMAL,Dilawarpur,Dilawarpur,19.092306,78.22198,01-01-2021,8.31
NIRMAL,Kadam,Kadam,19.09747,78.77456,01-01-2021,2.63
NIRMAL,Khanapur,Khanapur,19.047089,78.662131,01-01-2021,7.48
NIRMAL,Kubeer,Kubeer,19.2495,77.945833,01-01-2021,3.85
NIRMAL,Kuntala,Kuntala,19.169299,78.1004,01-01-2021,12.73
NIRMAL,Laxmanchanda,Laxmanchanda,19.017055,78.460861,01-01-2021,1.92
NIRMAL,Lokeswaram,Abdullapur,18.9703,78.0378,01-01-2021,9.88
NIRMAL,Lokeswaram,Lokeswaram,19.024499,78.0899,01-01-2021,11
NIRMAL,Lokeswaram,Manmad,19.061111,78.115833,01-01-2021,15.62
NIRMAL,Mamada,Mamada,19.077972,78.522916,01-01-2021,3.15
NIRMAL,Mudhole,Mudhole,18.977199,77.916699,01-01-2021,10.3
NIRMAL,Narsapur ,Narsapur,19.109799,78.1653,01-01-2021,9.42
NIRMAL,Nirmal,Nirmal,19.092416,78.343527,01-01-2021,2.98
NIRMAL,Pembi,Pembi,19.1885,78.6374,01-01-2021,3.34
NIRMAL,Sarangapur,Beeravelly,19.139638,78.261972,01-01-2021,7.82
NIRMAL,Sarangapur,Ponkur (Swarna),19.246611,78.215138,01-01-2021,9.2
NIRMAL,Tanur,Bhosi,19.109333,77.879444,01-01-2021,14.93
NIRMAL,BASAR,BASAR,,,01-01-2021,
NIRMAL,BHAINSA,BHAINSA,,,01-01-2021,
NIRMAL,BHAINSA,KAMOLE,,,01-01-2021,
NIRMAL,BHAINSA,MATEGAON-B,,,01-01-2021,
NIRMAL,DASTURABAD,DASTURABAD,,,01-01-2021,
NIRMAL,DASTURABAD,GONDSERIALA,,,01-01-2021,
NIRMAL,DILAWARPUR,MALLAPUR,,,01-01-2021,
NIRMAL,KADDAM,CHINNABELLAL,,,01-01-2021,
NIRMAL,KADDAM,LAXMIPUR,,,01-01-2021,
NIRMAL,KADDAM,LINGAPUR,,,01-01-2021,
NIRMAL,KADDAM,ALLAMPALLY,,,01-01-2021,
NIRMAL,KADDAM,GANDIGOPALPUR,,,01-01-2021,
NIRMAL,KHANAPUR,BEERNANDI,,,01-01-2021,
NIRMAL,KHANAPUR,RAJURA,,,01-01-2021,
NIRMAL,KHANAPUR,SURJAPUR,,,01-01-2021,
NIRMAL,KUBEER,PANGRA,,,01-01-2021,
NIRMAL,KUNTALA,KALLUR,,,01-01-2021,
NIRMAL,LOKESWARAM,DHARMORA,,,01-01-2021,
NIRMAL,LOKESWARAM,PUSPUR,,,01-01-2021,
NIRMAL,MAMADA,PONKAL,,,01-01-2021,
NIRMAL,MAMADA,TANDRA,,,01-01-2021,
NIRMAL,MUDHOLE,CHINCHALA,,,01-01-2021,
NIRMAL,PEMBI,LOTHAR THANDA,,,01-01-2021,
NIRMAL,SOAN,PAKPATLA,,,01-01-2021,
NIRMAL,TANUR,TANUR,,,01-01-2021,
NIZAMABAD,Armoor,Macharla,18.5154,78.1319,01-01-2021,1.94
NIZAMABAD,Armoor,perkit,18.807999,78.314999,01-01-2021,7.27
NIZAMABAD,Bheemgal,Bheemgal,18.714999,78.442,01-01-2021,5.52
NIZAMABAD,Bheemgal,Gongoppula,18.3818,78.2537,01-01-2021,21.53
NIZAMABAD,Bheemgal,Jagiryal,18.4355,78.2623,01-01-2021,5.38
NIZAMABAD,Bheemgal,Mendora,18.4316,78.3022,01-01-2021,4.31
NIZAMABAD,Bheemgal,Thallapally,18.3828,78.334,01-01-2021,17.27
NIZAMABAD,Bodhan,Bodhan,18.670499,77.892499,01-01-2021,4.65
NIZAMABAD,Bodhan,Chinnamavandi,,,01-01-2021,24.89
NIZAMABAD,Bodhan,Saloor,,,01-01-2021,3.22
NIZAMABAD,Darpally,Ramadugu,18.613,78.309,01-01-2021,4.26
NIZAMABAD,Darpally,Honnajipet,18.322,78.2323,01-01-2021,6.82
NIZAMABAD,Dichpally,Yanampally,18.627,78.249,01-01-2021,7.62
NIZAMABAD,Indalwai,Gannaram,18.512497,78.234885,01-01-2021,4.61
NIZAMABAD,Jakrampally,Jakrampally,18.707199,78.271599,01-01-2021,7.62
NIZAMABAD,Kammarapalli,Choutpalli,18.7753,78.5416,01-01-2021,3.05
NIZAMABAD,Kammarapalli,Inayathnagar,18.4268,78.3311,01-01-2021,5.39
NIZAMABAD,Kammarapalli,Kammarpally,18.4925,78.3036,01-01-2021,12.73
NIZAMABAD,Kotagiri,Kotagiri,18.575,77.830299,01-01-2021,18.52
NIZAMABAD,Kotagiri,Kallur,,,01-01-2021,12.35
NIZAMABAD,Kotagiri,Takli,18.3755,77.4752,01-01-2021,18.32
NIZAMABAD,Makloor,Madanapally,18.680999,78.178,01-01-2021,11.38
NIZAMABAD,Makloor,Makloor,18.7517,78.124822,01-01-2021,
NIZAMABAD,Mendora,Mendora,18.5653,78.242,01-01-2021,4.23
NIZAMABAD,Morthad,Morthad,18.825999,78.449,01-01-2021,15.25
NIZAMABAD,Mugpal,Manchippa,18.538999,78.114,01-01-2021,3.4
NIZAMABAD,Mupkal,Mupkal,18.912998,78.361616,01-01-2021,17.02
NIZAMABAD,Mupkal,Renjarla,18.5358,78.2508,01-01-2021,7.3
NIZAMABAD,Nandipet,Ailapoor,18.853,78.114,01-01-2021,7
NIZAMABAD,Nandipet,Badguni,18.569,78.88,01-01-2021,8.03
NIZAMABAD,Nandipet,Nutpally,18.936499,78.218199,01-01-2021,3.48
NIZAMABAD,Nandipet,Velmal,18.826388,78.159444,01-01-2021,8.97
NIZAMABAD,Navipet,Fakeerabad,,,01-01-2021,
NIZAMABAD,Navipet,Nizampur,18.5146,78.31,01-01-2021,5.39
NIZAMABAD,Navipet,Yemcha,18.516,78.583,01-01-2021,5.45
NIZAMABAD,Nizamabad,Arsapally,18.685342,78.06863,01-01-2021,4.63
NIZAMABAD,Nizamabad Rural,Malkapur,18.4352,78.31,01-01-2021,5.55
NIZAMABAD,Renjal,Dupally,18.732999,77.990999,01-01-2021,16.13
NIZAMABAD,Renjal,Satapoor,18.747833,77.930703,01-01-2021,
NIZAMABAD,Rudrur,Rayakur,18.610199,77.8575,01-01-2021,13.58
NIZAMABAD,Sirikonda,Cheemanpally,18.335,78.323,01-01-2021,14.7
NIZAMABAD,Sirikonda,Gadkole,18.323,78.2623,01-01-2021,13.65
NIZAMABAD,Sirikonda,Pakala,18.3041,78.306,01-01-2021,10.84
NIZAMABAD,Sirikonda,Peddavolgote,18.604,78.426,01-01-2021,4.53
NIZAMABAD,Sirikonda,Sirikonda,18.3447,78.2733,01-01-2021,21.83
NIZAMABAD,Sirikonda,Thumpally,18.2833,78.294,01-01-2021,7.17
NIZAMABAD,Tadvai,Aragonda,,,01-01-2021,
NIZAMABAD,Vailpoor,Ankushpur,18.811,78.395999,01-01-2021,9.28
NIZAMABAD,Vailpoor,Vailpoor,18.772999,78.386,01-01-2021,11.53
NIZAMABAD,Varni,Rudrur,,,01-01-2021,
NIZAMABAD,Varni,Jalalpur,,,01-01-2021,8.13
NIZAMABAD,Varni,Varni,18.3114,77.5327,01-01-2021,6.58
NIZAMABAD,Yedapalli,Yedapalli,18.677999,77.954,01-01-2021,12.85
NIZAMABAD,Yergatla,Yergatla,18.5426,78.2857,01-01-2021,6.3
NIZAMABAD,Armoor,Ankapur,78.242,,01-01-2021,
NIZAMABAD,Armoor,Manthini,78.254,,01-01-2021,
NIZAMABAD,Balkonda,Balkonda,78.3485,,01-01-2021,
NIZAMABAD,Balkonda,Vannel (B),78.3782,,01-01-2021,
NIZAMABAD,Bheemgal,Bada Bheemgal,78.4026,,01-01-2021,
NIZAMABAD,Bheemgal,Kupkal,78.5061,,01-01-2021,
NIZAMABAD,Bheemgal,Pallykonda,78.4794,,01-01-2021,
NIZAMABAD,Bodhan,Sangam,77.9114,,01-01-2021,
NIZAMABAD,Dharpally,Kotalpally,78.3599,,01-01-2021,
NIZAMABAD,Dichpally,Dichpally,78.1937,,01-01-2021,
NIZAMABAD,Indalwai,Indalwai,78.2493,,01-01-2021,
NIZAMABAD,Jakranpally,Thorikonda,78.3107,,01-01-2021,
NIZAMABAD,Mendora,Doodgaon,78.3739,,01-01-2021,
NIZAMABAD,Morthad,Palem,78.4401,,01-01-2021,
NIZAMABAD,Mosra,Mosra,77.9776,,01-01-2021,
NIZAMABAD,Mugpal,Mugpal,78.1218,,01-01-2021,
NIZAMABAD,Nandipet,Donkeswar,78.1855,,01-01-2021,
NIZAMABAD,Nandipeta,Talweda,78.094,,01-01-2021,
NIZAMABAD,Nizamabad North,Dubba,78.1039,,01-01-2021,
NIZAMABAD,Nizamabad North,Kanteswar,78.1105,,01-01-2021,
NIZAMABAD,Nizamabad Rural,Gupanpally,78.1346,,01-01-2021,
NIZAMABAD,Nizamabad Rural,Palda,78.0822,,01-01-2021,
NIZAMABAD,Nizamabad South,Shivajinagar,78.0898,,01-01-2021,
NIZAMABAD,Renjal,Dandigutta,77.9766,,01-01-2021,
NIZAMABAD,Sirikonda,Chinna Volgate,78.4451,,01-01-2021,
NIZAMABAD,Sirikonda,Musheernagar,78.4144,,01-01-2021,
NIZAMABAD,Velpoor,Pachal Narkuda,78.3718,,01-01-2021,
NIZAMABAD,Velpoor,Ramannapet,78.4382,,01-01-2021,
NIZAMABAD,Yedapally,Thanakalan,78.007,,01-01-2021,
NIZAMABAD,Yeragatla,Gumriyal,78.5152,,01-01-2021,
PEDDAPALLY,Antergaon,Goliwada,18.833305,79.420027,01-01-2021,6.18
PEDDAPALLY,Dharmaram,Dharmaram,18.7453,79.187199,01-01-2021,5.42
PEDDAPALLY,Dharmaram,Khilavanparthy,18.703666,79.27625,01-01-2021,3.45
PEDDAPALLY,Eligedu,Eligedu,18.552157,79.260942,01-01-2021,3.37
PEDDAPALLY,Julapalli,Julapalli,18.620499,79.2492,01-01-2021,3.75
PEDDAPALLY,Kamanpur,Rompikunta,18.669583,79.480861,01-01-2021,3.08
PEDDAPALLY,Manthani,Eglaspur,18.646138,79.690944,01-01-2021,19.8
PEDDAPALLY,Manthani,Gunjapadugu,18.686694,79.604833,01-01-2021,13.69
PEDDAPALLY,Manthani,Khansaipet,18.665719,79.731276,01-01-2021,5.48
PEDDAPALLY,Manthani,Manthani ,18.65,79.666666,01-01-2021,13.2
PEDDAPALLY,Manthani,Venkatapur,18.654638,79.801555,01-01-2021,10.84
PEDDAPALLY,Mutharam (Man),Khammampally,18.557083,79.699611,01-01-2021,6.45
PEDDAPALLY,Odella,Odella,18.4528,79.46,01-01-2021,4.45
PEDDAPALLY,Peddapalli,Peddapalli,18.6017,79.389999,01-01-2021,5.36
PEDDAPALLY,Ramagundam,Palakurthy,18.61652778,79.38755556,01-01-2021,4.75
PEDDAPALLY,Ramagundam,Ramagundam,18.759388,79.506611,01-01-2021,1.2
PEDDAPALLY,Srirampuram,Srirampuram,18.484581,79.526019,01-01-2021,6.55
RANGAREDDY,Chevella,Alur,17.323999,78.064,01-01-2021,7.19
RANGAREDDY,Amangal,Amangal,16.844199,78.5425,01-01-2021,4.35
RANGAREDDY,Shabad,Antharam,17.471,78.326,01-01-2021,5.17
RANGAREDDY,Balapur,Balapur (Leninnagar),17.3213,78.518,01-01-2021,4.6
RANGAREDDY,Abdullapurmet,Batasingaram,17.301,78.7246,01-01-2021,2.16
RANGAREDDY,Kondurgu,Bhairampally,17.119399,78.075,01-01-2021,4.17
RANGAREDDY,Manchal,Bodakonda,17.061999,78.768999,01-01-2021,2.86
RANGAREDDY,Chevella,Dharmasagar,17.336,78.154,01-01-2021,11.3
RANGAREDDY,Ibrahimpatnam,Elimenadu,17.149,78.599,01-01-2021,7.42
RANGAREDDY,Serilingampally,Gachibowli,17.43,78.367999,01-01-2021,
RANGAREDDY,Madgula,Irvin,16.779781,78.715601,01-01-2021,4.18
RANGAREDDY,Kadthal,Kadthal,16.975,78.5022,01-01-2021,10.01
RANGAREDDY,Kandukur,Kandukur,17.079999,78.48,01-01-2021,2.94
RANGAREDDY,Kadthal,Karkalpad,16.9291,78.5275,01-01-2021,4.34
RANGAREDDY,Keshampet,Keshampet,16.943945,78.329383,01-01-2021,7.68
RANGAREDDY,Moinabad,Kethereddipally,17.276,78.222999,01-01-2021,9.73
RANGAREDDY,Ibrahimpatnam,Kongarkalan,17.203999,78.544999,01-01-2021,4.67
RANGAREDDY,Kothur,Kothur,17.1587,78.287899,01-01-2021,4.57
RANGAREDDY,Madgula,Kulkulpally,16.906166,78.725869,01-01-2021,12.25
RANGAREDDY,Abdullapurmet,Kuntloor,17.3403,78.6266,01-01-2021,1.47
RANGAREDDY,Madgula,Madgula,16.843335,78.687875,01-01-2021,8.21
RANGAREDDY,Maheswaram,Maheswaram,17.135,78.439,01-01-2021,9.69
RANGAREDDY,Shamshabad,Malkaram,17.256,78.282,01-01-2021,11.71
RANGAREDDY,Manchal,Manchal,17.16,78.738999,01-01-2021,3.52
RANGAREDDY,Ibrahimpatnam,Mangalpally,17.22,78.598,01-01-2021,4.43
RANGAREDDY,Moinabad,Moinabad,17.33,78.289999,01-01-2021,3.1
RANGAREDDY,Balapur,Nadhargull,17.2728,78.5401,01-01-2021,3.03
RANGAREDDY,Shamshabad,Ootlapally,17.249999,78.367999,01-01-2021,6.63
RANGAREDDY,Shamshabad,Palmokole,17.203999,78.300999,01-01-2021,4.91
RANGAREDDY,Maheswaram,Pondiyala,17.12522,78.381701,01-01-2021,4.07
RANGAREDDY,Rajender Nagar,Rajender Nagar,17.315999,78.405,01-01-2021,7.64
RANGAREDDY,Farooqnagar,Shadnagar,17.0714,78.2052,01-01-2021,16.95
RANGAREDDY,Shahbad,Shahbad,17.201999,78.103999,01-01-2021,13.25
RANGAREDDY,Shankarpalli,Shankarpalli,17.452999,78.131,01-01-2021,12.53
RANGAREDDY,Kothur,Siddapur,17.0514,78.351399,01-01-2021,6.53
RANGAREDDY,Talakondapalli,Talakondapalli,16.889999,78.413,01-01-2021,11.83
RANGAREDDY,Kothur,Teegapur,17.163899,78.2722,01-01-2021,4.69
RANGAREDDY,Yacharam,Tumotoniguda (Mall),16.992,78.701,01-01-2021,3.79
RANGAREDDY,Chouderigudem,Vanampalli,17.1195,78.0086,01-01-2021,4.81
RANGAREDDY,Yacharam,Yacharam,17.05,78.67,01-01-2021,5.93
RANGAREDDY,Shankarpalli,Yeravaguda,17.408999,78.127,01-01-2021,2.08
RANGAREDDY,ABDULLAPURMET,ABDULLAPURMET,,,01-01-2021,
RANGAREDDY,ABDULLAPURMET,TURKAYAMJAL,,,01-01-2021,
RANGAREDDY,CHEVELLA,KANDAWADA,,,01-01-2021,
RANGAREDDY,CHOUDERIGUDEM,THUMMALAPALLY,,,01-01-2021,
RANGAREDDY,CHOUDERIGUDEM,VEERANNAPET,,,01-01-2021,
RANGAREDDY,FAROOQNAGAR,BURGULA,,,01-01-2021,
RANGAREDDY,FAROOQNAGAR,CHINCHODE,,,01-01-2021,
RANGAREDDY,GANDIPET,NARSINGI,,,01-01-2021,
RANGAREDDY,IBRAHIMPATNAM,DANDU MAILARAM,,,01-01-2021,
RANGAREDDY,IBRAHIMPATNAM,IBRAHIMPATNAM,,,01-01-2021,
RANGAREDDY,KADTHAL,MUDVIN,,,01-01-2021,
RANGAREDDY,KANDUKUR,MEERKHANPET,,,01-01-2021,
RANGAREDDY,KANDUKUR,RACHALUR,,,01-01-2021,
RANGAREDDY,KESHAMPET,IPPALAPALLY,,,01-01-2021,
RANGAREDDY,KONDURGU,KONDURGU,,,01-01-2021,
RANGAREDDY,KOTHUR,INMULNARVA,,,01-01-2021,
RANGAREDDY,KOTHUR,KOTHUR,,,01-01-2021,
RANGAREDDY,KOTHUR,PENJERLA,,,01-01-2021,
RANGAREDDY,MAHESHWARAM,AMEERPET,,,01-01-2021,
RANGAREDDY,MAHESHWARAM,MANKAL,,,01-01-2021,
RANGAREDDY,MOINABAD ,HIMAYATHSAGAR,,,01-01-2021,
RANGAREDDY,SERILINGAMPALLY,GOPANPALLY,,,01-01-2021,
RANGAREDDY,SHAHBAD ,CHANDANVELLY,,,01-01-2021,
RANGAREDDY,SHAMSHABAD,PEDDA SHAPOOR,,,01-01-2021,
RANGAREDDY,SHANKERPALLY,MOKILA,,,01-01-2021,
RANGAREDDY,YACHARAM ,NANDIWANAPARTHI,,,01-01-2021,
SANGAREDDY,Ameenpur,Kistareddypet,17.324946,78.172213,01-01-2021,3.38
SANGAREDDY,Andole,Jogipet,17.835805,78.072972,01-01-2021,16.68
SANGAREDDY,Gummadiddla,Annaram,17.629631,78.376086,01-01-2021,17.4
SANGAREDDY,Gummadiddla,Gummadiddla,17.41055,78.220442,01-01-2021,14.39
SANGAREDDY,Hathnoora,Borapatla,17.304717,78.103869,01-01-2021,15.77
SANGAREDDY,Hathnoora,Nasthipur,17.4244,78.130672,01-01-2021,21.72
SANGAREDDY,Jarasangam,Jarasangam,17.761111,77.713888,01-01-2021,6.02
SANGAREDDY,Jinnaram,Ootla,17.375878,78.191979,01-01-2021,8.67
SANGAREDDY,Kalher,Bachapally,18.081896,77.520472,01-01-2021,9.47
SANGAREDDY,Kalher,Masanpalli,18.172314,77.875417,01-01-2021,3.38
SANGAREDDY,Kalher,Meerkhanpally,16.082961,77.513977,01-01-2021,4.41
SANGAREDDY,Kandi,Byathole,17.363981,88.112123,01-01-2021,11.29
SANGAREDDY,Kandi,Cherlagudem,17.31153,78.0524,01-01-2021,7.76
SANGAREDDY,Kangti,Kangti,18.222499,77.615555,01-01-2021,3.6
SANGAREDDY,Koheer,Kothur (D),17.605555,77.720833,01-01-2021,13.68
SANGAREDDY,Kondapur,Kondapur,17.550843,78.011197,01-01-2021,27.88
SANGAREDDY,Manoor,Manoor,17.979166,77.736111,01-01-2021,5.46
SANGAREDDY,Mogudampally,Mogudampally,17.613891,77.505361,01-01-2021,4.97
SANGAREDDY,Munipally,Budera,17.6289,77.8408,01-01-2021,3.02
SANGAREDDY,Nagalgidda,Pusalpad,17.5845,77.441,01-01-2021,5.22
SANGAREDDY,Narayankhed,Abbenda,18.052181,77.714243,01-01-2021,
SANGAREDDY,Narayankhed,Narayanakhed,18.0231,77.46116,01-01-2021,4.8
SANGAREDDY,Nyalkal,Hadnoor - s,17.8033,77.626099,01-01-2021,13.14
SANGAREDDY,Patancheru ,Isnapur,17.563079,78.198536,01-01-2021,11.1
SANGAREDDY,Patancheru ,Patancheruvu,17.525833,78.270166,01-01-2021,13.1
SANGAREDDY,Pulkal,Kodur,17.444246,77.590221,01-01-2021,15.11
SANGAREDDY,Pulkal,Muddaipet,17.452277,77.582361,01-01-2021,5.05
SANGAREDDY,Pulkal,Pulkal,17.719063,77.986731,01-01-2021,7.47
SANGAREDDY,R.C.Puram,R.C.Puram,17.509099,78.3003,01-01-2021,18.94
SANGAREDDY,Raikode,Chimnapur,17.51432,77.43304,01-01-2021,11.19
SANGAREDDY,Sadasivpet,Sadasivpet,17.37103,77.57244,01-01-2021,12.64
SANGAREDDY,Sangareddy,Sangareddy,17.597199,78.0782,01-01-2021,29.21
SANGAREDDY,Sirgapoor,Wasar,18.08037,77.39595,01-01-2021,10.45
SANGAREDDY,Vatpally,Vatpally,17.54308,77.52368,01-01-2021,4.27
SANGAREDDY,Zaheerabad,Ranzole-I,17.675599,77.6561,01-01-2021,14.8
SIDDIPET,Akkannapet,Jangaon,,,01-01-2021,6.06
SIDDIPET,Bejjanki,Dacharam,18.251222,79.056861,01-01-2021,2.01
SIDDIPET,Bejjanki,Guggilla,18.200666,79.060611,01-01-2021,8.98
SIDDIPET,Bejjanki,Mylaram,,,01-01-2021,4.96
SIDDIPET,Bejjanki,Vodlur Begampet,18.321326,79.042599,01-01-2021,3.89
SIDDIPET,Cherila,Cherila,,,01-01-2021,3.13
SIDDIPET,Cherila,Gurijakunta,17.9561,78.965,01-01-2021,4.89
SIDDIPET,Cherila,Nagapuri,,,01-01-2021,6.15
SIDDIPET,Cherila,Veerannapet,,,01-01-2021,3.71
SIDDIPET,Chinnakodur,Allipur,18.237699,78.9237,01-01-2021,9.27
SIDDIPET,Chinnakodur,Ananthasagar,18.1846,79.002099,01-01-2021,9.62
SIDDIPET,Chinnakodur,Machapur,,,01-01-2021,
SIDDIPET,Chinnakodur,Peddakodur,18.1488,78.8894,01-01-2021,6.71
SIDDIPET,Doulthabad ,Mubaraspur,,,01-01-2021,15.93
SIDDIPET,Dubbak,Chittapur,18.1308,78.6203,01-01-2021,14.36
SIDDIPET,Dubbak,Dubbak,,,01-01-2021,
SIDDIPET,Dubbak,Gambeerpur,18.2285,78.608099,01-01-2021,18.76
SIDDIPET,Dubbak,Peddacheekode,18.2143,78.6304,01-01-2021,9.12
SIDDIPET,Dubbak,Pothireddypet,,,01-01-2021,11.59
SIDDIPET,Gajwel,Gajwel,17.8447,78.6847,01-01-2021,12.67
SIDDIPET,Husnabad,Husnabad,18.129166,79.204166,01-01-2021,3.62
SIDDIPET,Jagdevpur,Munigadapa,17.8133,78.824199,01-01-2021,9.5
SIDDIPET,Jagdevpur,Chatlapally,17.8506,78.8582,01-01-2021,5.61
SIDDIPET,Jagdevpur,Dharmaram,17.715499,78.8135,01-01-2021,9.34
SIDDIPET,Jagdevpur,Itkal,17.763,78.774699,01-01-2021,
SIDDIPET,Jagdevpur,Kondapur,17.786099,78.849099,01-01-2021,6.64
SIDDIPET,Jagdevpur,T.Narsapur,17.857299,78.863199,01-01-2021,2.4
SIDDIPET,Koheda,Koheda,18.1686,79.0936,01-01-2021,3.18
SIDDIPET,Koheda,Varikolu,18.255361,79.109805,01-01-2021,4.22
SIDDIPET,Komaravelli,Komaravelli,,,01-01-2021,3.56
SIDDIPET,Komaravelli,Ainapur,,,01-01-2021,4.31
SIDDIPET,Komaravelli,Gouraipally,17.880712,78.851505,01-01-2021,4.15
SIDDIPET,Komaravelli,Komuravelli,17.9277,78.895499,01-01-2021,
SIDDIPET,Kondapak,Ankireddypally,,,01-01-2021,2.53
SIDDIPET,Kondapak,Sir singandla,,,01-01-2021,4.22
SIDDIPET,Madoor,Bekkal,17.988387,79.10353,01-01-2021,2.67
SIDDIPET,Madoor,Madoor,17.9307,79.0503,01-01-2021,10.68
SIDDIPET,Madoor,Salakpur,,,01-01-2021,5.45
SIDDIPET,Markood,Markood,,,01-01-2021,9.67
SIDDIPET,Mirdoddi,Bhoompalli,18.1208,78.597199,01-01-2021,6.69
SIDDIPET,Mirdoddi,Jangapally,,,01-01-2021,13.63
SIDDIPET,Mulugu,Mulugu,17.721399,78.6333,01-01-2021,38.82
SIDDIPET,Mulugu,Adivimajid,17.7059,78.6755,01-01-2021,16.84
SIDDIPET,Mulugu,Zaptisingaipally,,,01-01-2021,4.56
SIDDIPET,Nanganur,Katha,18.017861,79.070666,01-01-2021,2.32
SIDDIPET,Nanganur,Kodarajpally,18.03879,79.092646,01-01-2021,7
SIDDIPET,Nanganur,Rampur,18.088799,78.992499,01-01-2021,7.46
SIDDIPET,Raipole,Raipole,17.925599,78.6181,01-01-2021,10.37
SIDDIPET,Siddipet,Siddipet,18.103299,78.837499,01-01-2021,7.21
SIDDIPET,Siddipet,Ragavapur,,,01-01-2021,14.51
SIDDIPET,Siddipet,Tornal,18.115799,78.751299,01-01-2021,9.41
SIDDIPET,Thoguta,Kuknoorpally,,,01-01-2021,15.74
SIDDIPET,Wargal,Majidpalli,17.823299,78.586599,01-01-2021,1.65
SIRCILLA,Boinpally,Korem,18.5315,78.914599,01-01-2021,2.81
SIRCILLA,Boinpally,Kothapet (NC),18.41936111,78.97238889,01-01-2021,5.35
SIRCILLA,Chandurthy,Chandurthy,18.572416,78.777805,01-01-2021,3.39
SIRCILLA,Gambhiraopet,Gajasingaram,18.38488889,78.57305556,01-01-2021,4.57
SIRCILLA,Gambhiraopet,Kothapally,18.253361,78.581888,01-01-2021,11.95
SIRCILLA,Gambhiraopet,Narmal,18.283725,78.552568,01-01-2021,6.05
SIRCILLA,Illanthakunta,Ananthagiri,18.267336,78.903132,01-01-2021,
SIRCILLA,Illanthakunta,Illanthukunta ,18.311944,78.956388,01-01-2021,9.9
SIRCILLA,Illanthakunta,Kandikatkur,18.373722,78.964305,01-01-2021,2.82
SIRCILLA,Illanthakunta,Repaka,18.264083,78.976055,01-01-2021,4.27
SIRCILLA,Konaraopet,Dharmaram,18.44830556,78.74,01-01-2021,5.1
SIRCILLA,Konaraopet,Kolanur,18.41977778,78.778,01-01-2021,8.94
SIRCILLA,Konaraopet,Kondapur,18.512108,78.698962,01-01-2021,6.32
SIRCILLA,Konaraopet,Mamidipalli,18.499277,78.757555,01-01-2021,8.04
SIRCILLA,Konaraopet,Nizamabad,18.4703,78.7189,01-01-2021,7.09
SIRCILLA,Konaraopet,Suddala,18.46788889,78.79275,01-01-2021,2.73
SIRCILLA,Mustabad,Avunoor,18.350277,78.716996,01-01-2021,11.45
SIRCILLA,Mustabad,Kondapur,18.342888,78.683888,01-01-2021,4.26
SIRCILLA,Sircilla,Sircilla(urban),18.4056,78.8267,01-01-2021,8.21
SIRCILLA,Thangalapally,Rallapet,18.35458333,78.78244444,01-01-2021,4.89
SIRCILLA,Thangalapally,Ramchandrapaur,18.27797222,78.82316667,01-01-2021,0.76
SIRCILLA,Veernapally,Garjanapalle,18.526722,78.610861,01-01-2021,10.75
SIRCILLA,Veernapally,Veernapally,18.465589,78.60137,01-01-2021,9.35
SIRCILLA,Vemulawada,Chekkapalli,18.533099,78.8599,01-01-2021,3.53
SIRCILLA,Vemulawada,Vemulawada(rural),18.486422,78.863888,01-01-2021,6.41
SIRCILLA,Yellareddipet,Racherla Boppaspur,18.377197,78.616814,01-01-2021,13.19
SIRCILLA,Yellareddipet,Rajannapet,18.402899,78.642499,01-01-2021,4.76
SURYAPET,Arvapally,Jajireddigudem,17.329188,79.49963,01-01-2021,4.79
SURYAPET,Arvapally,Kodur,17.316549,79.622842,01-01-2021,6.62
SURYAPET,Arvapally,Nagaram,17.386693,79.496965,01-01-2021,3.25
SURYAPET,Atmakur(s),Aipur,17.275805,79.727555,01-01-2021,5.43
SURYAPET,Chilkur,Bethevole,16.968099,79.812029,01-01-2021,2.25
SURYAPET,Chilkur,Chilkuru,16.952543,79.8861,01-01-2021,0.86
SURYAPET,Chinthalapalem ( mallareddygudem),Dondapadu,16.817943,80.012784,01-01-2021,9.21
SURYAPET,Chinthalapalem ( mallareddygudem),Gudimalkapur,16.796718,79.980992,01-01-2021,13.54
SURYAPET,Chinthalapalem ( mallareddygudem),Mallareddigudem,16.76601,79.984304,01-01-2021,12.46
SURYAPET,Chivemla,B. Chandupatla,17.141752,79.718666,01-01-2021,1.69
SURYAPET,Chivemla,Gumpula Tirumalagiri,17.107692,79.722059,01-01-2021,4.07
SURYAPET,Gardepalli,Gardepalli,,,01-01-2021,
SURYAPET,Kodad,Thogarrai,16.936788,79.931655,01-01-2021,0.54
SURYAPET,Mattampalle,Mattampalli,16.786858,79.854204,01-01-2021,3.57
SURYAPET,Mattampalle,Raghunadhapalem,16.753544,79.885324,01-01-2021,7.2
SURYAPET,Mellacheruvu,Mellacheruvu,16.83738,79.904517,01-01-2021,5.76
SURYAPET,Mothey,Kudali,,,01-01-2021,
SURYAPET,Mothey,Mamillaguda,17.18088,79.848406,01-01-2021,4.17
SURYAPET,Mothey,Urlaguda,17.25145,79.846083,01-01-2021,0.84
SURYAPET,Munagala,Akupamula,17.033053,79.873081,01-01-2021,2.69
SURYAPET,Nadigudem,Vaila Singaram,17.080252,79.933253,01-01-2021,2.23
SURYAPET,Nereducharla,Dirsencherla,16.85282,79.673823,01-01-2021,2.62
SURYAPET,Nuthankal,Dirsenapally,17.360234,79.734976,01-01-2021,4.05
SURYAPET,Nuthankal,Maddirala,,,01-01-2021,
SURYAPET,Nuthankal,Nuthankal,17.333829,79.691828,01-01-2021,3.34
SURYAPET,Palakeedu,Janpahad,16.739271,79.706918,01-01-2021,9.73
SURYAPET,Palakeedu,Palakeedu,16.804402,79.69542,01-01-2021,2.25
SURYAPET,Suryapet,Pillalamarry,17.146308,79.575342,01-01-2021,1.23
SURYAPET,Suryapet,Yerkaram,17.228555,79.575112,01-01-2021,14.33
SURYAPET,Thungathurthi,Annaram,17.381962,79.609174,01-01-2021,2.67
SURYAPET,Thungathurthi,Ravulapally,17.471323,79.628219,01-01-2021,4.55
SURYAPET,Thungathurthi,Thungathurthi,17.398742,79.59122,01-01-2021,2.2
SURYAPET,Tirumalagiri,Mamidala,17.508166,79.542476,01-01-2021,8.12
SURYAPET,ANANTHAGIRI,GONDRIYALA,,,01-01-2021,
SURYAPET,ATHMAKUR(S),ATHMAKUR(S),,,01-01-2021,
SURYAPET,CHIVVEMLA,VATTIKHAMMAMPAHAD,,,01-01-2021,
SURYAPET,GARIDEPALLI,KALMALACHERUVU,,,01-01-2021,
SURYAPET,HUZURNAGAR,HUZURNAGAR,,,01-01-2021,
SURYAPET,KODAD,KAPUGAL,,,01-01-2021,
SURYAPET,MADDIRALA,MUKUNDAPURAM,,,01-01-2021,
SURYAPET,MUNAGALA,MUNAGALA,,,01-01-2021,
SURYAPET,MADDIRALA,REDDYGUDEM,,,01-01-2021,
SURYAPET,MUNAGALA,NELAMARRI,,,01-01-2021,
SURYAPET,MUNAGALA,REPALA,,,01-01-2021,
SURYAPET,NADIGUDEM,NADIGUDEM,,,01-01-2021,
SURYAPET,NAGARAM,ETOOR,,,01-01-2021,
SURYAPET,NEREDUCHERLA,PENCHIKALDINNE,,,01-01-2021,
SURYAPET,PALAKEEDU,ALONGAPURAM,,,01-01-2021,
SURYAPET,PENPAHAD,N.ANNARAM,,,01-01-2021,
SURYAPET,PENPAHAD,PENPAHAD,,,01-01-2021,
SURYAPET,SURYAPET,BALEMLA,,,01-01-2021,
SURYAPET,SURYAPET,SURYAPET,,,01-01-2021,
SURYAPET,THIRUMALAGIRI,THATIPAMULA,,,01-01-2021,
VIKARABAD,Bantwaram,Bantwaram,17.444999,77.696,01-01-2021,5.65
VIKARABAD,Basheerabad,Basheerabad,17.211,77.444,01-01-2021,11.02
VIKARABAD,Bomraspet,Bomraspet,17.164004,77.719418,01-01-2021,5.65
VIKARABAD,Bomraspet,Madnapally,17.219275,77.773446,01-01-2021,4.59
VIKARABAD,Dharoor,Antharam,17.23312,77.48246,01-01-2021,12.92
VIKARABAD,Dharoor,Dharoor,17.303,77.773999,01-01-2021,10.05
VIKARABAD,Doma,Doma,17.5195,77.5141,01-01-2021,13.07
VIKARABAD,Doulathabad,Doulathabad,16.998299,77.5415,01-01-2021,5.8
VIKARABAD,Kodangal,Kodangal,17.0992,77.6011,01-01-2021,8.1
VIKARABAD,Kodangal,Rudraram (D),17.132999,77.511,01-01-2021,9.38
VIKARABAD,Kodangal,Rudraram (S),17.132999,77.511,01-01-2021,6.42
VIKARABAD,Kulkacherla,Kulkacherla,17.016999,77.876,01-01-2021,5.77
VIKARABAD,Kulkacherla,Puttaphad ,17.159,77.49174,01-01-2021,20.2
VIKARABAD,Marpalli,Marpalli,17.528999,77.771,01-01-2021,16.45
VIKARABAD,Marpalli,Narsapur,17.17441,77.34162,01-01-2021,34.62
VIKARABAD,Mominpet,Durgam Cheruvu,17.15199,78.1284,01-01-2021,6.57
VIKARABAD,Mominpet,Mominpet,17.517999,77.890999,01-01-2021,6.2
VIKARABAD,Nawabpet,Nawabpet,17.427777,77.968611,01-01-2021,
VIKARABAD,Nawabpet,Vattinenipally(s),17.437,77.977999,01-01-2021,4.72
VIKARABAD,Parigi,Parigi,17.179999,77.879999,01-01-2021,12.73
VIKARABAD,Peddamul,Kandanelli,17.1344,77.47215,01-01-2021,6.33
VIKARABAD,Peddamul,Peddamul,17.33,77.66,01-01-2021,9.12
VIKARABAD,Peddamul,Thattepalli,17.16,77.384,01-01-2021,7.15
VIKARABAD,Pudur,Chengamala,16.54497,77.59278,01-01-2021,6.5
VIKARABAD,Pudur,Pedda Umintyal,17.227999,77.975,01-01-2021,6.46
VIKARABAD,Pudur,Pudur,17.263999,77.956999,01-01-2021,7.78
VIKARABAD,Tandur,Kota Basupally,17.33,77.499999,01-01-2021,3.7
VIKARABAD,Tandur,Tandur,17.33,77.499999,01-01-2021,4.95
VIKARABAD,Vikarabad ,Maildevarpally,16.57298,77.51423,01-01-2021,24.8
VIKARABAD,Vikarabad ,Vikarabad(S),17.250999,77.590999,01-01-2021,10.57
VIKARABAD,Yalal,Yalal,17.2,77.64,01-01-2021,11.02
VIKARABAD,Yalal,Bagayapalli,17.01158,77.3252,01-01-2021,10.29
VIKARABAD,Yalal,Yenkapally,17.025546,77.384,01-01-2021,0.72
WANAPARTHY,Amarchintha,Singampet,,,01-01-2021,2.2
WANAPARTHY,Atmakuru,Atmakuru,16.336999,77.806,01-01-2021,3.42
WANAPARTHY,Ghanpur,Ghanapur,16.56306,78.046454,01-01-2021,2.27
WANAPARTHY,Ghanpur,Kamaluddinpur,,,01-01-2021,1.6
WANAPARTHY,Gopalpet,Gopalpet,16.378599,78.1348,01-01-2021,2.94
WANAPARTHY,Gopalpet,Yedutla,,,01-01-2021,2.3
WANAPARTHY,Kothakota,Kanaipally,16.388259,77.960249,01-01-2021,8.3
WANAPARTHY,Kothakota,Madnapur,16.3776,77.872899,01-01-2021,2
WANAPARTHY,Pangal,Pangal,16.24721,78.104481,01-01-2021,1.6
WANAPARTHY,Pebbair,Ayyavaripalli,16.1156,78.023599,01-01-2021,1.5
WANAPARTHY,Wanaparthy,Peddagudem,,,01-01-2021,2.41
WANAPARTHY,Peddamandadi,Peddamandadi,16.4306,78.025099,01-01-2021,2.5
WANAPARTHY,Weepangandla,Sanginonipally,,,01-01-2021,1.9
WARANGAL,Chennaraopet,Chennaraopet,17.5259,79.522,01-01-2021,2
WARANGAL,Duggondi,Duggondi,18.019399,79.8077,01-01-2021,4.01
WARANGAL,Geesugonda,Geesgonda,17.962999,79.6991,01-01-2021,3
WARANGAL,Geesugonda,Vanchanagiri,17.9475,79.6897,01-01-2021,4.12
WARANGAL,Khanapur,Khanapur,17.898799,79.93,01-01-2021,4
WARANGAL,Nallabelli,Narakkapet,18.007999,79.8875,01-01-2021,3.1
WARANGAL,Narsampet,Narasampet,17.9227,79.887499,01-01-2021,4.19
WARANGAL,Nekkonda,Ameenpet,17.808099,79.8003,01-01-2021,2.9
WARANGAL,Nekkonda,Nagaram,17.4533,79.531,01-01-2021,3.9
WARANGAL,Parvathagiri,Parvathagiri,17.744466,79.723991,01-01-2021,8.45
WARANGAL,Rayaparthy,Kondur,17.694199,79.547299,01-01-2021,8.05
WARANGAL,Rayaparthy,Rayaparthy,17.7072,79.607699,01-01-2021,5.27
WARANGAL,Sangem,Sangem,17.8844,79.7113,01-01-2021,3.49
WARANGAL,Parvathagiri,Theegarajupally,17.834699,79.7061,01-01-2021,7.89
WARANGAL,Wardhannapet,Wardhannapet,17.773,79.5794,01-01-2021,6.65
WARANGAL,Khila Warangal,Mamnoor,17.90800278,79.59561389,01-01-2021,2.8
WARANGAL,Warangal,Charbowli,17.981899,79.607,01-01-2021,2.65
HANUMAKONDA,Bheemadevarpalli,Gatla Narsingapur,18.0881,79.3274,01-01-2021,2.77
HANUMAKONDA,Bheemadevarpalli,Kothapally,18.09344444,79.45455278,01-01-2021,5.5
HANUMAKONDA,Bheemadevarpalli,Vangara,18.133888,79.344999,01-01-2021,6.05
HANUMAKONDA,Dharmasagar,Dharmapuri,18.006403,79.437694,01-01-2021,3.62
HANUMAKONDA,Dharmasagar,Narayanagiri,17.9905,79.376899,01-01-2021,2.99
HANUMAKONDA,Velair,Velair,18.08066944,79.3907,01-01-2021,1.84
HANUMAKONDA,Elkathurthy,Elkathurthy,18.103269,79.437198,01-01-2021,9.15
HANUMAKONDA,Hanamkonda,Hanumkonda,18.0008,79.5577,01-01-2021,6.17
HANUMAKONDA,Hasanparthy,Seethampet,18.077599,79.515299,01-01-2021,3.23
HANUMAKONDA,Inavole,Panthini,17.84918889,79.61472222,01-01-2021,2.58
HANUMAKONDA,Inavole,Punnelu,17.87007222,79.59561389,01-01-2021,2.67
HANUMAKONDA,Kamalapur,Kamalapur,18.179399,79.524199,01-01-2021,2.76
HANUMAKONDA,Kamalapur,Shanigaram,18.184083,79.597194,01-01-2021,1.15
HANUMAKONDA,Athmakur,Atmakur,18.0686,79.738,01-01-2021,2.4
HANUMAKONDA,Damera,Damera,18.0308,79.381,01-01-2021,2.4
HANUMAKONDA,Nadikuda,Cherlapally,18.233188,79.608064,01-01-2021,8.22
HANUMAKONDA,Nadikuda,Nadikuda,18.192999,79.6416,01-01-2021,2.91
HANUMAKONDA,Nadikuda,Parkal,18.2016,79.6374,01-01-2021,4.18
WARANGAL,Nellikudur,Annaram shariff,17.4131,79.4117,01-01-2021,5.05
HANUMAKONDA,Shayampet,Pathipaka(Abendent),,,01-01-2021,
YADADRI,Gundala,Ambala,17.494643,79.253042,01-01-2021,4.79
YADADRI,Gundala,Peddapadishala,,,01-01-2021,3.03
YADADRI,Gundala,Velmajala,,,01-01-2021,3.29
YADADRI,Alair,Kolanpaka,17.690896,79.036291,01-01-2021,5.28
YADADRI,Alair,Sarajipet,17.617622,79.118658,01-01-2021,9.45
YADADRI,Atmakur,Chada,17.51638889,79.11277778,01-01-2021,6.87
YADADRI,Atmakur(m),Atmakur,17.465339,79.139056,01-01-2021,10.23
YADADRI,B.Pochampalli,B.Pochampalli,17.336196,78.810768,01-01-2021,5.13
YADADRI,Bhongiri,Bhongiri,17.484698,78.907077,01-01-2021,3
YADADRI,Bhongiri,Chandupatla,17.499212,78.97936,01-01-2021,9.75
YADADRI,Bhongiri,Nandanam,17.436592,78.927323,01-01-2021,3.71
YADADRI,Bibinagar,Bibinagar,17.460344,78.801601,01-01-2021,6.46
YADADRI,Bibinagar,Yenkiryal,17.407101,78.768589,01-01-2021,5.71
YADADRI,Choutuppal,D.Malkapur,17.243055,78.847222,01-01-2021,3.65
YADADRI,M.Turkapally,Ch.Laxmapur,17.651268,78.754263,01-01-2021,2.98
YADADRI,Mothukur,Kanchanapalli,17.447357,79.262826,01-01-2021,3.58
YADADRI,Mothukur,Mothukur,17.394263,79.192816,01-01-2021,5.1
YADADRI,Mothukur,Paladugu,17.378081,79.280102,01-01-2021,3.49
YADADRI,Mothukur,Podichedu,17.39083333,79.34083333,01-01-2021,8.75
YADADRI,Rajapet,Bondugala,17.768305,78.9665,01-01-2021,4.18
YADADRI,Rajapet,Kurraram,17.781431,78.933771,01-01-2021,7.4
YADADRI,Rajapet,Raghunadapuram,17.679134,78.94736,01-01-2021,4.75
YADADRI,Rajapet,Rajapet,17.73768,78.927703,01-01-2021,3.41
YADADRI,Rajapet,Somaram,16.68777778,78.80111111,01-01-2021,10.5
YADADRI,Ramannapet,Ramanapet,17.283121,79.095091,01-01-2021,4.66
YADADRI,Ramannapet,Yellanki,17.293818,79.030897,01-01-2021,11.01
YADADRI,Ramannapet,Yennaram,17.318131,79.20265,01-01-2021,3.49
YADADRI,S.Narayanpur,S.Narayanpur,17.144719,78.86001,01-01-2021,9.93
YADADRI,Thurkapally,Gandamalla,17.16694444,79.02,01-01-2021,7.65
YADADRI,Valigonda,Arror,17.386758,79.10801,01-01-2021,1.12
YADADRI,Valigonda,T. somaram,17.399953,78.95229,01-01-2021,2.82
YADADRI,Valigonda,Varkatpally,17.338506,78.932216,01-01-2021,4.01
YADADRI,Valigonda,Vemulakonda,17.347782,79.143433,01-01-2021,3.43
YADADRI,Y.Gutta,Mallapuram,17.633555,78.911638,01-01-2021,7.15
YADADRI,Y.Gutta,Motakondur,,,01-01-2021,11.98
ADILABAD,Adilabad,Adilabad,19.668299,78.5247,01-02-2021,8.96
ADILABAD,Bazarhatnur,Bazarhatnur,19.458888,78.350833,01-02-2021,6.76
ADILABAD,Bela,Chandpally,19.684431,78.848456,01-02-2021,8.21
ADILABAD,Bheempur,Arli,19.83196,78.37931,01-02-2021,8
ADILABAD,Bheempur,Bheempur,19.772188,78.417841,01-02-2021,7.29
ADILABAD,Boath,Boath,19.342416,78.316527,01-02-2021,7.52
ADILABAD,Gudihatnoor,Gudihatnoor,19.525555,78.512222,01-02-2021,15
ADILABAD,Jainath,Bhoraj,19.739722,78.546472,01-02-2021,14.5
ADILABAD,Jainath,Jainath,19.730555,78.64,01-02-2021,3.55
ADILABAD,Narnoor,Narnoor,19.495665,78.852654,01-02-2021,3.54
ADILABAD,Neradigonda,Neradigonda,19.29375,78.41216,01-02-2021,9.9
ADILABAD,Talamadugu,Devapur,19.612944,78.463111,01-02-2021,7.3
ADILABAD,Talamadugu,Talamadugu,19.6334,78.396899,01-02-2021,4.87
ADILABAD,Tamsi,Tamsi,19.6811,78.426799,01-02-2021,4.48
ADILABAD,Utnoor,Utnoor,19.367777,78.782777,01-02-2021,4.6
BHADRADRI,Allapalli,Allapalli,17.82975,80.475008,01-02-2021,5.68
BHADRADRI,Allapalli,Markodu,17.91444,80.507666,01-02-2021,6.54
BHADRADRI,Annapureddypalli,Annapureddypalli,17.355422,80.82226,01-02-2021,15.02
BHADRADRI,Ashwapuram,Ammagaripalli,17.865166,80.85051,01-02-2021,1.24
BHADRADRI,Ashwapuram,Aswapuram,17.847626,80.803745,01-02-2021,7.06
BHADRADRI,Ashwapuram,Aswapuram,17.835944,80.825667,01-02-2021,5.38
BHADRADRI,Ashwapuram,ASWARAOPET (D),17.243444,81.109888,01-02-2021,32.08
BHADRADRI,Aswaraopet (S),Aswaraopet (S),17.244199,81.110599,01-02-2021,31.58
BHADRADRI,Aswaraopeta,Duradapadu,17.43166,81.090311,01-02-2021,6.73
BHADRADRI,Aswaraopeta,Gummadivalli,17.416861,81.178305,01-02-2021,2.58
BHADRADRI,Aswaraopeta,NANDIPADU,17.455835,81.128705,01-02-2021,2.47
BHADRADRI,Aswaraopeta,Vinayakapuram,17.34561,81.12147,01-02-2021,7.36
BHADRADRI,Bhadrachalam,Bhadrachalam,17.666775,80.900922,01-02-2021,3.58
BHADRADRI,Burgampad,Krishnasagar,17.709524,80.811524,01-02-2021,6.02
BHADRADRI,Burgampad,M.Banjara,17.6447,80.7911,01-02-2021,8.23
BHADRADRI,Chandrugonda,Cherla,18.07449,80.83124,01-02-2021,3.99
BHADRADRI,Chandrugonda,Maddukuru,17.356111,80.675527,01-02-2021,19.49
BHADRADRI,Chandrugonda,Ravikampadu,17.3986,80.6106,01-02-2021,6.92
BHADRADRI,Cherla,Chinmedisileru,18.061388,80.853833,01-02-2021,8.88
BHADRADRI,Chunchupalli,Chunchupalli,17.536377,80.612734,01-02-2021,4.18
BHADRADRI,Dammapeta,Malkaram,17.310587,81.038879,01-02-2021,12.13
BHADRADRI,Dammapeta,Mandalapalli,17.235972,81.008986,01-02-2021,40.57
BHADRADRI,Dammapeta,Patwarigudem,17.346638,80.9629722,01-02-2021,18.22
BHADRADRI,Dummugudem,Bandirevu,17.921194,80.9155,01-02-2021,2.63
BHADRADRI,Dummugudem,Dummugudem,17.8523,80.8937,01-02-2021,2.42
BHADRADRI,Gundala,Gundala,17.906,80.33055,01-02-2021,3.64
BHADRADRI,Gundala,Kanchanapalli,17.792225,80.42243,01-02-2021,1.73
BHADRADRI,Gundala,Mamakannu,17.865819,80.412727,01-02-2021,6.12
BHADRADRI,Gundala,Sainapalli,17.95777,80.34505,01-02-2021,4.82
BHADRADRI,Gundala,Settupalli,17.810477,80.303583,01-02-2021,8.85
BHADRADRI,Julurpadu,P. Narsapuram,17.44733,80.526444,01-02-2021,4.47
BHADRADRI,Julurpadu,Papakollu,17.4183,80.4828,01-02-2021,4.62
BHADRADRI,Kalvala nagaram*,karakagudem,18.014193,80.619051,01-02-2021,2.62
BHADRADRI,Karakagudem,Karakagudem,18.034655,80.568147,01-02-2021,4.42
BHADRADRI,Kothagudem,Kothagudem,17.544858,80.61844,01-02-2021,21.08
BHADRADRI,Laxmidevipalli,Bangaruchelka,17.756305,80.602444,01-02-2021,3.1
BHADRADRI,Laxmidevipalli,Laxmidevipalli,17.563756,80.624863,01-02-2021,5.67
BHADRADRI,Manuguru,Manuguru,17.955072,80.83008,01-02-2021,6.27
BHADRADRI,Manuguru,Pagideru,17.970111,80.73386,01-02-2021,1.92
BHADRADRI,Mulakalapalli,Mulakalapalli (D),17.5036,80.831899,01-02-2021,10.95
BHADRADRI,Mulakalapalli,MULAKALAPALLI (S),17.419666,80.481383,01-02-2021,11.16
BHADRADRI,Mulakalapalli,N. Jaganadhapuram,17.4343055,80.86475,01-02-2021,10.99
BHADRADRI,Mulakalapalli,Pusugudem            (Pakeer thanda),17.541869,80.763222,01-02-2021,3.48
BHADRADRI,Mulakalapalli,Thimmampet,17.541769,80.9327222,01-02-2021,6.34
BHADRADRI,Palwancha,Danthalaboru,17.586194,80.839666,01-02-2021,6.06
BHADRADRI,Palwancha,Pathapalwancha,17.540083,80.503527,01-02-2021,5.82
BHADRADRI,Palwancha,REGELLA,17.949174,80.576312,01-02-2021,4.19
BHADRADRI,Palwancha,Ulavanoor,17.780799,80.679199,01-02-2021,5.31
BHADRADRI,Palwancha,Yanmbailu,17.678111,80.663944,01-02-2021,5.29
BHADRADRI,Pinapaka,Dugenepalli,18.12886,80.64669,01-02-2021,2.87
BHADRADRI,Pinapaka,Potlapalli ,18.038255,80.684305,01-02-2021,5.94
BHADRADRI,Sujathanagar,Sarvaram (Gudithanda),17.5277166,80.58608,01-02-2021,4.95
BHADRADRI,Sujathanagar,Sujathanagar,17.48378,80.57759,01-02-2021,6.71
BHADRADRI,Tekulapalli,Bethampudi,17.564333,80.449277,01-02-2021,6.92
BHADRADRI,Tekulapalli,Bodu,17.674399,80.443599,01-02-2021,5.32
BHADRADRI,Tekulapalli,Mutyalampadu,17.540083,80.503522,01-02-2021,5.6
BHADRADRI,Tekulapalli,Sulanagar,17.543558,80.501917,01-02-2021,6.22
BHADRADRI,Yellandu,Komararam,17.707922,80.317501,01-02-2021,6.5
BHADRADRI,Yellandu,Narayanapuram D,17.5125,80.374999,01-02-2021,6.68
BHADRADRI,Yellandu,NARAYANAPURAM S,17.51269,80.37816,01-02-2021,6.56
BHADRADRI,Yellandu,Rompedu,17.647382,80.299749,01-02-2021,5.18
BHADRADRI,Yellandu,Sudimalla,17.589836,80.354077,01-02-2021,3.71
BHUPALPALLY,Bhupalpally,Bhupalpally,18.441128,79.876922,01-02-2021,5.63
BHUPALPALLY,Bhupalpally,Gudadpally,18.389256,79.8072,01-02-2021,4.02
BHUPALPALLY,Bhupalpally,Nandigama,18.46163889,80.08775,01-02-2021,3.92
BHUPALPALLY,Chityala,Chityala,18.337481,79.671932,01-02-2021,4.46
BHUPALPALLY,Chityala,Jadalpet,18.383433,79.736111,01-02-2021,13.31
BHUPALPALLY,Ghanpur Mulug,Chelpur(D),18.37641667,79.83125,01-02-2021,8.36
BHUPALPALLY,Ghanpur Mulug,Chelpur(S),18.375514,79.835062,01-02-2021,6.02
BHUPALPALLY,Ghanpur Mulug,Velthurlapally,18.29822222,79.89383333,01-02-2021,7.03
BHUPALPALLY,Kataram,Jadaraopet,18.69579,79.883779,01-02-2021,10.96
BHUPALPALLY,Kataram,Medipally,18.550111,79.923666,01-02-2021,23.31
BHUPALPALLY,Kataram,Regulagudem,18.623722,79.868777,01-02-2021,35.97
BHUPALPALLY,Kataram,Shankarampally 125(D),18.603804,79.898529,01-02-2021,29.32
BHUPALPALLY,Kataram,Shankarampally 47,18.61308333,79.88513889,01-02-2021,28.91
BHUPALPALLY,Maha Mutharam,Stambampally,18.563899,79.9927,01-02-2021,1.61
BHUPALPALLY,Maha Mutharam,Yatnaram,18.573833,80.152333,01-02-2021,5.31
BHUPALPALLY,Mahadevpur,Ambatipalli,18.695678,80.061858,01-02-2021,23.71
BHUPALPALLY,Mahadevpur,Annaram,18.762444,79.843138,01-02-2021,18.96
BHUPALPALLY,Mahadevpur,Kaleswaram,18.803055,79.905444,01-02-2021,10.63
BHUPALPALLY,Mahadevpur,Mahadevpur -125D,18.72627778,79.97925,01-02-2021,10.81
BHUPALPALLY,Mahadevpur,Mahadevpur 199D,18.72627778,79.97925,01-02-2021,10.12
BHUPALPALLY,Mahadevpur,Mahadevpur 75NC,18.799999,79.916666,01-02-2021,11.61
BHUPALPALLY,Malhar Rao,Mallaram,18.556805,79.785777,01-02-2021,7.16
BHUPALPALLY,Mogullapalli,Aknepally,18.3631,79.6103,01-02-2021,5.52
BHUPALPALLY,Mogullapalli,Rangapur,18.27063889,79.68827778,01-02-2021,8.07
BHUPALPALLY,Palimela,Kamanpally,18.625166,80.245666,01-02-2021,3.54
BHUPALPALLY,Palimela,Lenkalagadda,18.674833,80.129555,01-02-2021,13.34
BHUPALPALLY,Palimela,Sarvaipet,18.683222,80.238166,01-02-2021,15.12
BHUPALPALLY,Regonda,Gorikothapally,18.179599,79.814499,01-02-2021,9.06
BHUPALPALLY,Regonda,Regonda,18.239999,79.7775,01-02-2021,8.26
BHUPALPALLY,Tekumatla,Ramakrishnapuram,18.419,79.630499,01-02-2021,4.93
HYDERABAD,Ameerpet,"DIRECTOR WOMEN AND CHILD WELFARE, YOUSUFGUDA",17.262,78.262,01-02-2021,
HYDERABAD,Ameerpet,S.R.Nagar,17.264,78.262,01-02-2021,17.25
HYDERABAD,Ameerpet,"STDC Chest Hospital, Erragadda",17.264,78.264,01-02-2021,11.55
HYDERABAD,Asifnagar,"Govt. Polytechnic, Masab Tank.",17.241,78.271,01-02-2021,5.87
HYDERABAD,Asifnagar,Himayanagar,17.235,78.265,01-02-2021,2.5
HYDERABAD,Asifnagar,Kulsanapur,17.223,78.203,01-02-2021,3.23
HYDERABAD,Bandlaguda,Chandraingutta,17.195,78.29,01-02-2021,10.36
HYDERABAD,Bhadurpura,Bahadurpura,17.21,78.273,01-02-2021,1.69
HYDERABAD,Charminar,Darul Shifa,17.222,78.295,01-02-2021,4.97
HYDERABAD,Himayathnagar,"Fever Hospital, Nallakunta",17.235,78.3,01-02-2021,5.99
HYDERABAD,Himayathnagar,Indira Park,17.256,78.283,01-02-2021,2.31
HYDERABAD,Khairathabad,"CME premises, Chinthalbasti",17.243,78.274,01-02-2021,6.68
HYDERABAD,Khairathabad,"CME premises, Chinthalbasti",17.325,78.272,01-02-2021,6.9
HYDERABAD,Khairathabad,Khairathabad,,,01-02-2021,
HYDERABAD,Khairathabad,T.S..Secretariat,17.243,78.281,01-02-2021,
HYDERABAD,Maredpally,"Govt.Jr.College,West Maredpally",17.264,78.292,01-02-2021,5.39
HYDERABAD,Maredpally,Maredpally(s),17.264,78.303,01-02-2021,12.07
HYDERABAD,Musheerabad,Musheerabad,17.253,78.302,01-02-2021,5.65
HYDERABAD,Nampally,Nampally,17.252,78.286,01-02-2021,2.97
HYDERABAD,Saidabad,Juvinile home,17.102,78.172,01-02-2021,2.98
HYDERABAD,Secunderabad ,"Sanjeevaiah Park, Hussian Sagar.",17.295,78.272,01-02-2021,3.51
HYDERABAD,Shaikpet,Shaikpet,17.253,78.265,01-02-2021,
HYDERABAD,Shaikpet,"Vengal Rao Park, Srinagar colony",,,01-02-2021,3.21
HYDERABAD,Tirmalgiri,"NIMH,Hasmathpet",17.281,78.292,01-02-2021,7
JAGITYAL,Beerpur,Kandlapalle,19.027722,78.961055,01-02-2021,2.79
JAGITYAL,Dharmapuri,Dharmapuri,18.946944,79.101944,01-02-2021,6.25
JAGITYAL,Dharmapuri,Jaina,19.00419,79.0429,01-02-2021,4.44
JAGITYAL,Gollapalli,Gollapalli,18.7906,79.0522,01-02-2021,4.4
JAGITYAL,Ibrahimpatnam,Ibrahimpatnam,18.898611,78.579444,01-02-2021,5.81
JAGITYAL,Jagityal,Jagityal,18.46311,78.54365,01-02-2021,7.07
JAGITYAL,Jagityal,Morapally,18.49379,78.51353,01-02-2021,2.66
JAGITYAL,Kathalapur,Kathalapur,18.752777,78.689722,01-02-2021,2.35
JAGITYAL,Kodimal,Chepial,18.624722,78.935833,01-02-2021,6.98
JAGITYAL,Korutla,Ilapur,18.8561,78.7039,01-02-2021,7.68
JAGITYAL,Korutla,Korutla,18.818611,78.706388,01-02-2021,7.75
JAGITYAL,Mallapur,Mallapur,18.993948,78.770044,01-02-2021,7.35
JAGITYAL,Mallapur,VV Raopet,18.9647,78.706399,01-02-2021,8.35
JAGITYAL,Mallial,Nukapalli,18.709399,78.922199,01-02-2021,5.7
JAGITYAL,Medipally,Desaipet,18.4223,78.45427,01-02-2021,4.55
JAGITYAL,Medipally,Katlakunta,18.843888,78.813333,01-02-2021,3.98
JAGITYAL,Medipally,Rangapur,18.758416,78.792333,01-02-2021,3.45
JAGITYAL,Metpalli,Metpalli,18.847777,78.620555,01-02-2021,
JAGITYAL,Metpalli,Atmakur,18.752194,78.620111,01-02-2021,9.3
JAGITYAL,Metpalli,Bandalingapur,18.830899,78.5853,01-02-2021,6.45
JAGITYAL,Metpalli,Metla Chittapur,18.781131,78.588005,01-02-2021,3.22
JAGITYAL,Pegadapalli,Pegadapalli,18.706388,79.064444,01-02-2021,3.63
JAGITYAL,Raikal,Bornapally,19.026499,78.8235,01-02-2021,4.01
JAGITYAL,Raikal,Itikyal,18.9192,78.760618,01-02-2021,2.25
JAGITYAL,Raikal,Raikal,18.910338,78.802852,01-02-2021,3.82
JAGITYAL,Raikal,Vodde lingapur,18.959166,78.837222,01-02-2021,1
JAGITYAL,Sarangapur,Rachapalli,18.931444,78.931444,01-02-2021,5.16
JAGITYAL,Sarangapur,Sarangapur,18.929722,78.958055,01-02-2021,4.77
JAGITYAL,Velgatur,Chegyam,18.814499,79.273599,01-02-2021,2.88
JAGITYAL,Velgatur,Stambampally,18.861,79.161,01-02-2021,3.47
JAGITYAL,Velgatur,Velgatur,18.835299,79.169699,01-02-2021,4.36
JANGAON,Bachannapet,Bachannapet,17.7908,79.0422,01-02-2021,4.94
JANGAON,Bachannapet,Padamati Keshapur,17.838299,78.9394,01-02-2021,7.68
JANGAON,Chilpur,Kistajigudem,,,01-02-2021,5.19
JANGAON,Chilpur,Malkapur,,,01-02-2021,8
JANGAON,Devaruppula,Devaruppula,17.537399,79.356199,01-02-2021,3.15
JANGAON,Devaruppula,Singarajupalli,17.5919,79.273799,01-02-2021,4.73
JANGAON,Ghanpur stn,Chagal,17.838699,79.3604,01-02-2021,9.32
JANGAON,Ghanpur stn,Namiligonda,,,01-02-2021,1.43
JANGAON,Jangaon,Jangaon,17.697299,79.147399,01-02-2021,3.06
JANGAON,Jangaon,Siddanki,17.7676,79.0981,01-02-2021,7.69
JANGAON,Kodakandla,Kodakandla,17.5258,79.514399,01-02-2021,6.86
JANGAON,Lingala ghanpur,Jeedikal,17.6084,79.161299,01-02-2021,5.81
JANGAON,Lingala ghanpur,Lingala ghanpur,17.659099,79.1997,01-02-2021,6.26
JANGAON,Lingala ghanpur,Vadicherla,17.6606,79.236499,01-02-2021,1.27
JANGAON,Narmetta,Machupahad,17.87118,79.222159,01-02-2021,6.35
JANGAON,Narmetta,Veldanda,17.858198,79.124717,01-02-2021,5.07
JANGAON,Palakurthi,Gudur,17.736265,79.409394,01-02-2021,4.01
JANGAON,Palakurthi,Palakurthi,17.669099,79.422499,01-02-2021,6.79
JANGAON,Raghunadhapalli,Ibrahimpur,,,01-02-2021,7.88
JANGAON,Raghunadhapalli,Nidigonda,17.740555,79.233333,01-02-2021,3.92
JANGAON,Raghunadhapalli,Raghunadhapalli,17.747222,79.26,01-02-2021,8.08
JANGAON,Tarigopulla,Tarigopulla,,,01-02-2021,5.58
JANGAON,Zafergad,Kunur,17.847,79.4766,01-02-2021,10.9
JANGAON,Zafergad,Zafergad,17.7651,79.487,01-02-2021,6.05
JOGULAMBA(GADWAL),Alampur,Alampur,15.896441,78.121104,01-02-2021,2.65
JOGULAMBA(GADWAL),Dharoor,Dharoor,16.224385,77.678908,01-02-2021,5.37
JOGULAMBA(GADWAL),Dharoor,Neelahally,16.28659,77.61226,01-02-2021,3.09
JOGULAMBA(GADWAL),Gadwal,Gadwal,16.2326,77.802099,01-02-2021,1.37
JOGULAMBA(GADWAL),Gattu,Allor,,,01-02-2021,5.29
JOGULAMBA(GADWAL),Gattu,Gattu,16.1287,77.5757,01-02-2021,2.15
JOGULAMBA(GADWAL),Gattu,Induvasi,16.03913,77.5248,01-02-2021,
JOGULAMBA(GADWAL),Ieeza,Eklaspur,16.04836,77.63844,01-02-2021,
JOGULAMBA(GADWAL),Ieeza,Ieeza,16.0255,77.66929,01-02-2021,16.69
JOGULAMBA(GADWAL),Itikyal,Kodandapur,16.070099,77.831499,01-02-2021,23.75
JOGULAMBA(GADWAL),K-T Doddi,Kondapur,16.24993,77.56556,01-02-2021,4.67
JOGULAMBA(GADWAL),K-T Doddi,Kuchinerla,16.17976,77.52709,01-02-2021,2.47
JOGULAMBA(GADWAL),Maldakal,Maldakal,15.9656,77.9533,01-02-2021,1.22
JOGULAMBA(GADWAL),Manopad,Manopad,15.9656,77.9533,01-02-2021,3.71
JOGULAMBA(GADWAL),Undavally,Pullur,15.91743,78.00845,01-02-2021,16.87
JOGULAMBA(GADWAL),Undavally,Undavally,15.93461,78.03947,01-02-2021,2.36
JOGULAMBA(GADWAL),Waddepalli,Santhinagar,15.939999,77.839,01-02-2021,1.74
KAMAREDDY,Bansawada,Bansawada,18.392999,77.879,01-02-2021,5.65
KAMAREDDY,Bansawada,Budimi,18.34,77.89,01-02-2021,2.3
KAMAREDDY,Bhiknoor,Bhiknoor,18.195999,78.398999,01-02-2021,5.94
KAMAREDDY,Bhiknoor,Issannapally,18.142899,78.4767,01-02-2021,3.64
KAMAREDDY,Bhiknoor,P.D.Mallareddy,18.173,78.452999,01-02-2021,15.81
KAMAREDDY,Bibipet,Bibipet,18.206539,78.526499,01-02-2021,15.43
KAMAREDDY,BICHKUNDA,Pulkal,18.2356,77.4601,01-02-2021,6.1
KAMAREDDY,Birkur,Birkur,18.47,77.802999,01-02-2021,16.41
KAMAREDDY,Domakonda,Domakonda,18.249999,78.436,01-02-2021,18.72
KAMAREDDY,Gandhari,Gandhari,18.396,78.107,01-02-2021,16.46
KAMAREDDY,Gandhari,Ramlaxmanpally,18.319999,78.13,01-02-2021,15.05
KAMAREDDY,Gandhari,Sarvapoor,18.3647,77.9851,01-02-2021,15.42
KAMAREDDY,Jukkal,Jukkal,18.364,77.604,01-02-2021,4.42
KAMAREDDY,Jukkal,Savargao,18.321675,77.649524,01-02-2021,3.79
KAMAREDDY,Kamareddy,Adloor,18.343799,78.3435,01-02-2021,14.51
KAMAREDDY,Kamareddy,Narasannapally,18.2686,78.361699,01-02-2021,15.65
KAMAREDDY,Lingampet,Bhavanipet,18.279099,78.057999,01-02-2021,12.69
KAMAREDDY,Lingampet,Khannapur,18.19,78.159999,01-02-2021,20.21
KAMAREDDY,Lingampet,Mothe,18.31,78.17,01-02-2021,10.96
KAMAREDDY,Machareddy,Machareddy,18.329,78.493,01-02-2021,9.31
KAMAREDDY,Maddnur,Menoor,18.482999,77.652,01-02-2021,6.85
KAMAREDDY,Maddnur,SOMUR,,,01-02-2021,5.2
KAMAREDDY,Nagireddipet,Banjara Thanda,18.1449,78.081799,01-02-2021,19.88
KAMAREDDY,Nagireddipet,Malthummeda,18.113999,78.141999,01-02-2021,10
KAMAREDDY,Nasurullabad,Nasurullabad,18.467999,77.872999,01-02-2021,4.59
KAMAREDDY,Nizamsagar,Achampet,18.209999,77.93,01-02-2021,8.12
KAMAREDDY,Nizamsagar,Mohammadnagar,18.293098,77.908661,01-02-2021,3.92
KAMAREDDY,Pedda Kodapgal,Shanthapur,18.1952,77.4355,01-02-2021,6.54
KAMAREDDY,Pitlam,Maddela Cheruvu,18.35,77.849999,01-02-2021,11.85
KAMAREDDY,Rajampet,Argonda,18.233999,78.272,01-02-2021,14.7
KAMAREDDY,Rajampet,Kondapur,18.189999,78.279999,01-02-2021,12.15
KAMAREDDY,RAMAREDDY,Reddypet,18.2433,78.2501,01-02-2021,11.8
KAMAREDDY,Sadasivanagar,Sadasivanagar,18.406,78.264,01-02-2021,10.82
KAMAREDDY,Tadwai,Yerrapahad,18.292999,78.222999,01-02-2021,3.69
KAMAREDDY,Tadwai,Annaram,,,01-02-2021,27.7
KAMAREDDY,Yellareddy,Yellareddy,18.194033,78.019817,01-02-2021,
KAMAREDDY,BANSWADA ,HANMAJIPET ,,,01-02-2021,
KAMAREDDY,BHIKNOOR ,KACHAPOOR ,,,01-02-2021,
KAMAREDDY,BHIKNOOR ,MALLUPALLY ,,,01-02-2021,
KAMAREDDY,BICHKUNDA ,DOULTHAPUR ,,,01-02-2021,
KAMAREDDY,BICHKUNDA ,GUNDE NEMLI ,,,01-02-2021,
KAMAREDDY,BICHKUNDA ,PD DADGI ,,,01-02-2021,
KAMAREDDY,DOMAKONDA ,AMBERPET ,,,01-02-2021,
KAMAREDDY,DOMAKONDA ,ANCHANOOR ,,,01-02-2021,
KAMAREDDY,GANDHARI ,CHADMAL ,,,01-02-2021,
KAMAREDDY,GANDHARI ,GURJAL ,,,01-02-2021,
KAMAREDDY,LINGAMPET ,LINGAMPET ,,,01-02-2021,
KAMAREDDY,LINGAMPET ,PARMALLA,,,01-02-2021,
KAMAREDDY,MACHAREDDY ,RAJKHANPET ,,,01-02-2021,
KAMAREDDY,MADNOOR ,MADNOOR ,,,01-02-2021,
KAMAREDDY,MADNOOR ,RUSEGAON,,,01-02-2021,
KAMAREDDY,NAGIREDDYPET ,WADALPARTHY ,,,01-02-2021,
KAMAREDDY,NASRULLABAD ,BOMMADEVPALLY ,,,01-02-2021,
KAMAREDDY,NASRULLABAD ,BOPPASPALLY ,,,01-02-2021,
KAMAREDDY,NASRULLABAD ,MIRZAPUR ,,,01-02-2021,
KAMAREDDY,NIZAMSAGAR ,BURGUL ,,,01-02-2021,
KAMAREDDY,NIZAMSAGAR ,NARVA ,,,01-02-2021,
KAMAREDDY,NIZAMSAGAR ,VELGANOOR ,,,01-02-2021,
KAMAREDDY,PITLAM ,CHILLARGI ,,,01-02-2021,
KAMAREDDY,PITLAM ,GODMAGAON ,,,01-02-2021,
KAMAREDDY,PITLAM ,KURTHI / RAMPUR,,,01-02-2021,
KAMAREDDY,PITLAM ,NAGAMPALLY ,,,01-02-2021,
KAMAREDDY,PITLAM ,PITLAM ,,,01-02-2021,
KAMAREDDY,RAJAMPET ,SIDDAPOOR ,,,01-02-2021,
KAMAREDDY,RAMAREDDY ,DEVANPALLE ,,,01-02-2021,
KAMAREDDY,SADHASHIVNAGAR ,PADMAJI WADA ,,,01-02-2021,
KAMAREDDY,SADHASHIVNAGAR ,UTNOOR ,,,01-02-2021,
KAMAREDDY,TADWAI ,KANKAL,,,01-02-2021,
KAMAREDDY,YELLAREDDY ,THIMMAREDDY ,,,01-02-2021,
KAMAREDDY,YELLAREDDY ,YELLAREDDY ,,,01-02-2021,
KARIMNAGAR,Chigurumamidi,Bommanapalli,18.212599,79.230099,01-02-2021,
KARIMNAGAR,Chigurumamidi,Chigurumamidi,18.23625,79.201111,01-02-2021,7.1
KARIMNAGAR,Chigurumamidi,Ramancha,,,01-02-2021,10.41
KARIMNAGAR,Choppadandi,Rukmapur,18.5334,79.1461,01-02-2021,11.25
KARIMNAGAR,Ellandakunta ,Illanthukunta ,,,01-02-2021,4.08
KARIMNAGAR,Gangadhara,Burugupally,18.638599,79.0333,01-02-2021,6.91
KARIMNAGAR,Gangadhara,Gangadhara,18.579444,79.008888,01-02-2021,20.86
KARIMNAGAR,Ganneruvaram,Mylaram,18.3692,79.0731,01-02-2021,8.15
KARIMNAGAR,Huzurabad,Huzurabad,18.500305,79.144638,01-02-2021,1.79
KARIMNAGAR,Jammikunta,Vavilala,18.3963,79.5529,01-02-2021,3.7
KARIMNAGAR,Karimnagar,Nagnur,18.500305,79.144638,01-02-2021,2.57
KARIMNAGAR,Karimnagar,Karimnagar,18.436111,79.128333,01-02-2021,6.64
KARIMNAGAR,Keshavpatnam,Thadikal,,,01-02-2021,5.24
KARIMNAGAR,Manakondur,Laxmipur,18.446611,79.285194,01-02-2021,3.12
KARIMNAGAR,Ramadugu,Gundi,18.618833,79.087249,01-02-2021,8.05
KARIMNAGAR,Saidapur,Saidapur,18.2148,79.305174,01-02-2021,5.68
KARIMNAGAR,Thimmapur,Alugunur,,,01-02-2021,3.87
KARIMNAGAR,Thimmapur,Nedunur,18.3117,79.1383,01-02-2021,10.56
KARIMNAGAR,Veenavanka,Veenavanka,18.346111,79.420555,01-02-2021,3.9
KHAMMAM,Bonakal,Mustikunta,17.040809,80.223141,01-02-2021,1.25
KHAMMAM,Bonakal,Pedabeeravalli,17.05097222,80.30377778,01-02-2021,1.54
KHAMMAM,Chintakani,Pandillapalli,17.14880556,80.17716667,01-02-2021,2.4
KHAMMAM,Enkoor,Enkoor,17.32641667,80.44434167,01-02-2021,5.4
KHAMMAM,Enkoor,Timmaraopeta,17.37421944,80.3667,01-02-2021,2.55
KHAMMAM,Kallur,Kallur,17.209999,80.5467,01-02-2021,2.98
KHAMMAM,Kamepalli,Kothalingala,17.429453,80.237801,01-02-2021,5.28
KHAMMAM,Kamepalli,Ootkuru,17.45961111,80.29536111,01-02-2021,5.35
KHAMMAM,Khammam (R ),Theerthala,,,01-02-2021,2.58
KHAMMAM,Khammam (R ),M.V.Palem,17.2967,80.0969,01-02-2021,3.95
KHAMMAM,Khammam(U),Khammam I,17.2333,80.1333,01-02-2021,1.5
KHAMMAM,Khammam(U),Khammam-II,17.2525,80.143599,01-02-2021,2.05
KHAMMAM,Konijerla,Gubbagurthi,17.28016667,80.36358333,01-02-2021,2.89
KHAMMAM,Konijerla,Konijerla,17.2211,80.290799,01-02-2021,1.54
KHAMMAM,Kusumanchi,Jakkapally,17.14038056,79.96790278,01-02-2021,1.33
KHAMMAM,Kusumanchi,Kusumanchi,17.2208,79.958299,01-02-2021,6.3
KHAMMAM,Madhira,Madhira,16.93955556,80.3685,01-02-2021,7.82
KHAMMAM,Madhira,Nidhanapuram,16.92044444,80.41705556,01-02-2021,11.95
KHAMMAM,Mudigonda,Banapuram,17.06283889,80.12111111,01-02-2021,0.96
KHAMMAM,Mudigonda,Mudigonda,17.187499,80.0986,01-02-2021,1.7
KHAMMAM,Nelakondapalli,Bodulabanda,17.0930556,80.0160833,01-02-2021,1.31
KHAMMAM,Nelakondapalli,Buddaram,17.01656944,80.05926111,01-02-2021,2.56
KHAMMAM,Penuballi,Lankapalli,17.20305556,80.73527778,01-02-2021,9.9
KHAMMAM,Penuballi,Lingagudem,17.203055,80.735277,01-02-2021,
KHAMMAM,Penuballi,Penuballi,17.2135,80.6656111,01-02-2021,2.9
KHAMMAM,Penuballi,Tallapenta,,,01-02-2021,3.35
KHAMMAM,Raghundhapalem,Erlapudi,17.32465,80.27065,01-02-2021,6.7
KHAMMAM,Sathupalli,Cherukupalli,17.25627778,80.77747222,01-02-2021,1.85
KHAMMAM,Sathupalli,Prakashnagar,17.194199,80.894199,01-02-2021,42.85
KHAMMAM,Singareni,Madharam,17.53863889,80.22588889,01-02-2021,3.05
KHAMMAM,Thallada,Anjanapuram,17.2147,80.4625,01-02-2021,2.88
KHAMMAM,Thallada,Laxmipuram,17.16438056,80.49443889,01-02-2021,3.28
KHAMMAM,Thirumalayapalem,Kakaravai,17.30661111,79.83988889,01-02-2021,0.92
KHAMMAM,Thirumalayapalem,Tippareddigudem,17.37288889,79.98063889,01-02-2021,4.55
KHAMMAM,Thirumalayapalem,Bachode,17.372877,79.980619,01-02-2021,3.6
KHAMMAM,Thirumalayapalem,Tirumalayapalem,17.2997,79.900599,01-02-2021,3
KHAMMAM,Vemsur,Vemsur,17.144199,80.805,01-02-2021,3.1
KHAMMAM,Vemsur,Kallurigudem,17.11036111,80.74994444,01-02-2021,5.5
KHAMMAM,Vemsur,Kandukuru,17.07472222,80.83725,01-02-2021,2.66
KHAMMAM,Wyra,Siripuram,17.16046944,80.40075833,01-02-2021,1.55
KHAMMAM,Yerrupalem,Banigandlapadu,16.86169444,80.48302778,01-02-2021,7.41
KHAMMAM,Yerrupalem,Bheemavaram,16.93666667,80.51011111,01-02-2021,3.9
KUMURAM BHEEM,Asifabad,Asifabad,19.359617,79.286065,01-02-2021,18.5
KUMURAM BHEEM,Asifabad,Kommuguda,19.391953,79.250368,01-02-2021,1.85
KUMURAM BHEEM,Bejjur,Bejjur,19.356582,79.862302,01-02-2021,3.68
KUMURAM BHEEM,Bejjur,Rebbana,19.400277,79.749999,01-02-2021,2.85
KUMURAM BHEEM,Dahegaon,Dahegaon,19.250555,79.702222,01-02-2021,16.33
KUMURAM BHEEM,Jainoor,Rasimetta,19.400645,78.996121,01-02-2021,4.7
KUMURAM BHEEM,Kagaznagar,Jambugaon,19.325138,79.576266,01-02-2021,13.69
KUMURAM BHEEM,Kagaznagar,Kagaznagar,19.355709,79.496997,01-02-2021,4.15
KUMURAM BHEEM,Kerameri,Bheemangondi,19.423766,79.152032,01-02-2021,9.71
KUMURAM BHEEM,Kerameri,Kerameri,19.444,79.05625,01-02-2021,9.23
KUMURAM BHEEM,Kowthala,Kowthala,19.521899,79.7324,01-02-2021,4.57
KUMURAM BHEEM,Lingapur,Loddiguda,19.23191,79.06601,01-02-2021,1.33
KUMURAM BHEEM,Penchikalpet,Yelkapally,19.278088,79.756802,01-02-2021,14.61
KUMURAM BHEEM,Rebbena,Rebbena II,19.257,79.415972,01-02-2021,6.38
KUMURAM BHEEM,Sirput-T,Sirput-T,19.479999,79.569999,01-02-2021,
KUMURAM BHEEM,Tiryani,Bheempur,19.110748,79.203166,01-02-2021,4.18
KUMURAM BHEEM,Tiryani,Pangidimadra,19.251129,79.14703,01-02-2021,3.58
KUMURAM BHEEM,Tiryani,Tiryani,19.174472,79.272249,01-02-2021,
KUMURAM BHEEM,Wankidi,Savathi,19.57,79.27,01-02-2021,7.41
KUMURAM BHEEM,Wankidi,Wankidi,19.479999,79.32,01-02-2021,7.96
MAHABUBABAD,Bayyaram,Balajipeta,17.610599,80.087199,01-02-2021,5.14
MAHABUBABAD,Bayyaram,Gurimalla***,17.4135,80.0466,01-02-2021,6.53
MAHABUBABAD,Bayyaram,Kothagudem***,17.3725,80.1088,01-02-2021,9.13
MAHABUBABAD,Bayyaram,Kothapeta***,17.3346,80.0907,01-02-2021,5.12
MAHABUBABAD,Bayyaram,Motlathimapuram***,17.41747,80.0647,01-02-2021,6.39
MAHABUBABAD,Chinna Gudur,Chinna Gudur,17.514565,79.885498,01-02-2021,4.32
MAHABUBABAD,Dhantalapally,Dhantalapally,17.514699,79.7347,01-02-2021,2.14
MAHABUBABAD,Dornakal,Gollacherla,17.467899,80.0922,01-02-2021,1.64
MAHABUBABAD,Dornakal,Mannegudem,17.374115,80.043883,01-02-2021,4.45
MAHABUBABAD,Dornakal,Perumalla Sankeesa,17.420199,80.053599,01-02-2021,2.13
MAHABUBABAD,Gangaram,Gangaram,17.824,80.1974,01-02-2021,3.31
MAHABUBABAD,Gangaram,Komatlagudem,17.8808,80.230599,01-02-2021,9.13
MAHABUBABAD,Garla,Garla***,17.2924,80.0948,01-02-2021,4.12
MAHABUBABAD,Garla,Maddivancha***,17.3147,80.0554,01-02-2021,5.63
MAHABUBABAD,Gudur,Gudur,17.800499,79.981099,01-02-2021,4.71
MAHABUBABAD,Kesamudram,Kalwala,17.6555,79.8869,01-02-2021,5.33
MAHABUBABAD,Kesamudram,Kesamudram,17.6816,79.906899,01-02-2021,3.29
MAHABUBABAD,Koravi,Ayyagaripally,17.502999,79.988599,01-02-2021,3.14
MAHABUBABAD,Koravi,Mogilicherla,17.540299,80.0335,01-02-2021,4.32
MAHABUBABAD,Koravi,Upperagudem,17.4494,80.035499,01-02-2021,4.62
MAHABUBABAD,Kothaguda,Kothaguda,17.910499,80.055099,01-02-2021,11.45
MAHABUBABAD,Kothaguda,Madagudem,17.3217,80.0152,01-02-2021,3.89
MAHABUBABAD,Kothaguda,Sidireddypally,17.994099,80.0451,01-02-2021,8.35
MAHABUBABAD,Mahabubabad,Amanagal,17.593999,79.909899,01-02-2021,3.49
MAHABUBABAD,Mahabubabad,Mahabubabad,17.598299,80.001099,01-02-2021,4.12
